{
"type": "FeatureCollection",
"features":
[
{
"type": "Feature",
"geometry":
{
"type": "Point",
"coordinates":
[-86.8717959061,40.397776741778]
},
"properties":
{
"stop_id": "2439192",
"stop_code": "BUS466W",
"platform_code": "",
"stop_name": "22nd St & JR Hiatt Dr (NW Corner): BUS466W",
"stop_desc": "",
"zone_id": "",
"stop_url": "",
"location_type": "0",
"parent_station": "",
"stop_timezone": "America/Indiana/Indianapolis",
"position": "",
"direction": "",
"wheelchair_boarding": "0"
}
},
{
"type": "Feature",
"geometry":
{
"type": "Point",
"coordinates":
[-86.9442846099438,40.4455293000443]
},
"properties":
{
"stop_id": "2439193",
"stop_code": "BUS304",
"platform_code": "",
"stop_name": "Blackbird Farms 2 on McCormick Rd: BUS304",
"stop_desc": "",
"zone_id": "",
"stop_url": "",
"location_type": "0",
"parent_station": "",
"stop_timezone": "America/Indiana/Indianapolis",
"position": "",
"direction": "",
"wheelchair_boarding": "0"
}
},
{
"type": "Feature",
"geometry":
{
"type": "Point",
"coordinates":
[-86.95557189,40.4341987]
},
"properties":
{
"stop_id": "2439194",
"stop_code": "BUS173",
"platform_code": "",
"stop_name": "SR 26 & Scarlett Dr (SW Corner): BUS173",
"stop_desc": "",
"zone_id": "",
"stop_url": "",
"location_type": "0",
"parent_station": "",
"stop_timezone": "America/Indiana/Indianapolis",
"position": "",
"direction": "",
"wheelchair_boarding": "0"
}
},
{
"type": "Feature",
"geometry":
{
"type": "Point",
"coordinates":
[-86.962072751944,40.437337159575]
},
"properties":
{
"stop_id": "2439195",
"stop_code": "BUS176",
"platform_code": "",
"stop_name": "Klondike Rd & SR 26: BUS176",
"stop_desc": "",
"zone_id": "",
"stop_url": "",
"location_type": "0",
"parent_station": "",
"stop_timezone": "America/Indiana/Indianapolis",
"position": "",
"direction": "",
"wheelchair_boarding": "0"
}
},
{
"type": "Feature",
"geometry":
{
"type": "Point",
"coordinates":
[-86.961966502149,40.438542396771]
},
"properties":
{
"stop_id": "2439196",
"stop_code": "BUS902",
"platform_code": "",
"stop_name": "Blueberry Ln & Klondike Rd (NW Corner): BUS902",
"stop_desc": "",
"zone_id": "",
"stop_url": "",
"location_type": "0",
"parent_station": "",
"stop_timezone": "America/Indiana/Indianapolis",
"position": "",
"direction": "",
"wheelchair_boarding": "0"
}
},
{
"type": "Feature",
"geometry":
{
"type": "Point",
"coordinates":
[-86.961962706328,40.439964641528]
},
"properties":
{
"stop_id": "2439197",
"stop_code": "BUS175",
"platform_code": "",
"stop_name": "Klondike Rd & E Pine Ave: BUS175",
"stop_desc": "",
"zone_id": "",
"stop_url": "",
"location_type": "0",
"parent_station": "",
"stop_timezone": "America/Indiana/Indianapolis",
"position": "",
"direction": "",
"wheelchair_boarding": "0"
}
},
{
"type": "Feature",
"geometry":
{
"type": "Point",
"coordinates":
[-86.961997270042,40.441768914181]
},
"properties":
{
"stop_id": "2439198",
"stop_code": "BUS572",
"platform_code": "",
"stop_name": "Georgetown Rd & Klondike Rd (NW Corner): BUS572",
"stop_desc": "",
"zone_id": "",
"stop_url": "",
"location_type": "0",
"parent_station": "",
"stop_timezone": "America/Indiana/Indianapolis",
"position": "",
"direction": "",
"wheelchair_boarding": "0"
}
},
{
"type": "Feature",
"geometry":
{
"type": "Point",
"coordinates":
[-86.96196837681299,40.443983205646]
},
"properties":
{
"stop_id": "2439199",
"stop_code": "BUS903",
"platform_code": "",
"stop_name": "Rosewood Dr & Klondike Rd (NW Corner): BUS903",
"stop_desc": "",
"zone_id": "",
"stop_url": "",
"location_type": "0",
"parent_station": "",
"stop_timezone": "America/Indiana/Indianapolis",
"position": "",
"direction": "",
"wheelchair_boarding": "0"
}
},
{
"type": "Feature",
"geometry":
{
"type": "Point",
"coordinates":
[-86.93058825530198,40.419891726736005]
},
"properties":
{
"stop_id": "2439201",
"stop_code": "BUS755",
"platform_code": "",
"stop_name": "Airport Rd & Halsey Dr (SW Corner) BUS755",
"stop_desc": "",
"zone_id": "",
"stop_url": "",
"location_type": "0",
"parent_station": "",
"stop_timezone": "America/Indiana/Indianapolis",
"position": "",
"direction": "",
"wheelchair_boarding": "0"
}
},
{
"type": "Feature",
"geometry":
{
"type": "Point",
"coordinates":
[-86.921991093655,40.427204618678005]
},
"properties":
{
"stop_id": "2439202",
"stop_code": "BUS289",
"platform_code": "",
"stop_name": "Jischke Dr & 3rd St (SE Corner): BUS289",
"stop_desc": "",
"zone_id": "",
"stop_url": "",
"location_type": "0",
"parent_station": "",
"stop_timezone": "America/Indiana/Indianapolis",
"position": "",
"direction": "",
"wheelchair_boarding": "0"
}
},
{
"type": "Feature",
"geometry":
{
"type": "Point",
"coordinates":
[-86.92185652,40.42538496]
},
"properties":
{
"stop_id": "2439203",
"stop_code": "BUS584NE",
"platform_code": "",
"stop_name": "1st St & Jischke Dr (NE Corner): BUS584NE",
"stop_desc": "",
"zone_id": "",
"stop_url": "",
"location_type": "0",
"parent_station": "",
"stop_timezone": "America/Indiana/Indianapolis",
"position": "",
"direction": "",
"wheelchair_boarding": "0"
}
},
{
"type": "Feature",
"geometry":
{
"type": "Point",
"coordinates":
[-86.91957535476801,40.427226864796]
},
"properties":
{
"stop_id": "2439204",
"stop_code": "BUS332S",
"platform_code": "",
"stop_name": "3rd St & Russell St (SW Corner): BUS332S",
"stop_desc": "",
"zone_id": "",
"stop_url": "",
"location_type": "0",
"parent_station": "",
"stop_timezone": "America/Indiana/Indianapolis",
"position": "",
"direction": "",
"wheelchair_boarding": "0"
}
},
{
"type": "Feature",
"geometry":
{
"type": "Point",
"coordinates":
[-86.93040814484101,40.422238399327995]
},
"properties":
{
"stop_id": "2439205",
"stop_code": "BUS751",
"platform_code": "",
"stop_name": "Airport Rd & Nimitz Dr (SE Corner): BUS751",
"stop_desc": "",
"zone_id": "",
"stop_url": "",
"location_type": "0",
"parent_station": "",
"stop_timezone": "America/Indiana/Indianapolis",
"position": "",
"direction": "",
"wheelchair_boarding": "0"
}
},
{
"type": "Feature",
"geometry":
{
"type": "Point",
"coordinates":
[-86.93038219183,40.419794586146004]
},
"properties":
{
"stop_id": "2439206",
"stop_code": "BUS754",
"platform_code": "",
"stop_name": "Airport Rd & Halsey Dr (SE Corner): BUS754",
"stop_desc": "",
"zone_id": "",
"stop_url": "",
"location_type": "0",
"parent_station": "",
"stop_timezone": "America/Indiana/Indianapolis",
"position": "",
"direction": "",
"wheelchair_boarding": "0"
}
},
{
"type": "Feature",
"geometry":
{
"type": "Point",
"coordinates":
[-86.929827,40.416636]
},
"properties":
{
"stop_id": "2439207",
"stop_code": "BUS146",
"platform_code": "",
"stop_name": "Aviation Technology Bldg: BUS146",
"stop_desc": "",
"zone_id": "",
"stop_url": "",
"location_type": "0",
"parent_station": "",
"stop_timezone": "America/Indiana/Indianapolis",
"position": "",
"direction": "",
"wheelchair_boarding": "0"
}
},
{
"type": "Feature",
"geometry":
{
"type": "Point",
"coordinates":
[-86.930869,40.416517999999996]
},
"properties":
{
"stop_id": "2439208",
"stop_code": "BUS415",
"platform_code": "",
"stop_name": "Purdue Airport Main Terminal: BUS415",
"stop_desc": "",
"zone_id": "",
"stop_url": "",
"location_type": "0",
"parent_station": "",
"stop_timezone": "America/Indiana/Indianapolis",
"position": "",
"direction": "",
"wheelchair_boarding": "0"
}
},
{
"type": "Feature",
"geometry":
{
"type": "Point",
"coordinates":
[-86.87719908,40.42301523]
},
"properties":
{
"stop_id": "2439209",
"stop_code": "BUS134",
"platform_code": "",
"stop_name": "Howarth Center: BUS134",
"stop_desc": "",
"zone_id": "",
"stop_url": "",
"location_type": "0",
"parent_station": "",
"stop_timezone": "America/Indiana/Indianapolis",
"position": "",
"direction": "",
"wheelchair_boarding": "0"
}
},
{
"type": "Feature",
"geometry":
{
"type": "Point",
"coordinates":
[-86.85370561,40.35854431]
},
"properties":
{
"stop_id": "2439210",
"stop_code": "BUS887",
"platform_code": "",
"stop_name": "Chilton Park on Chilton Dr (S Roundabout):BUS887",
"stop_desc": "",
"zone_id": "",
"stop_url": "",
"location_type": "0",
"parent_station": "",
"stop_timezone": "America/Indiana/Indianapolis",
"position": "",
"direction": "",
"wheelchair_boarding": "0"
}
},
{
"type": "Feature",
"geometry":
{
"type": "Point",
"coordinates":
[-86.85717638,40.36007719]
},
"properties":
{
"stop_id": "2439211",
"stop_code": "BUS889",
"platform_code": "",
"stop_name": "Concord Rd & Marcasite Dr (NW Corner): BUS889",
"stop_desc": "",
"zone_id": "",
"stop_url": "",
"location_type": "0",
"parent_station": "",
"stop_timezone": "America/Indiana/Indianapolis",
"position": "",
"direction": "",
"wheelchair_boarding": "0"
}
},
{
"type": "Feature",
"geometry":
{
"type": "Point",
"coordinates":
[-86.90081190000001,40.42190479999999]
},
"properties":
{
"stop_id": "2439212",
"stop_code": "BUS425S",
"platform_code": "",
"stop_name": "Wabash Landing on Brown St (at Shelter): BUS425S",
"stop_desc": "",
"zone_id": "",
"stop_url": "",
"location_type": "0",
"parent_station": "",
"stop_timezone": "America/Indiana/Indianapolis",
"position": "",
"direction": "",
"wheelchair_boarding": "0"
}
},
{
"type": "Feature",
"geometry":
{
"type": "Point",
"coordinates":
[-86.92137,40.42049]
},
"properties":
{
"stop_id": "2439213",
"stop_code": "BUS352",
"platform_code": "",
"stop_name": "Harrison St & Martin Jischke Dr (NE Corner):BUS352",
"stop_desc": "",
"zone_id": "",
"stop_url": "",
"location_type": "0",
"parent_station": "",
"stop_timezone": "America/Indiana/Indianapolis",
"position": "",
"direction": "",
"wheelchair_boarding": "0"
}
},
{
"type": "Feature",
"geometry":
{
"type": "Point",
"coordinates":
[-86.915821,40.42049]
},
"properties":
{
"stop_id": "2439214",
"stop_code": "BUS269",
"platform_code": "",
"stop_name": "Harrison St & University St (NE Corner): BUS269",
"stop_desc": "",
"zone_id": "",
"stop_url": "",
"location_type": "0",
"parent_station": "",
"stop_timezone": "America/Indiana/Indianapolis",
"position": "",
"direction": "",
"wheelchair_boarding": "0"
}
},
{
"type": "Feature",
"geometry":
{
"type": "Point",
"coordinates":
[-86.912058,40.420431]
},
"properties":
{
"stop_id": "2439215",
"stop_code": "TEMP17",
"platform_code": "",
"stop_name": "Harrison St & Sheetz St (NE Corner): TEMP17",
"stop_desc": "",
"zone_id": "",
"stop_url": "",
"location_type": "0",
"parent_station": "",
"stop_timezone": "America/Indiana/Indianapolis",
"position": "",
"direction": "",
"wheelchair_boarding": "0"
}
},
{
"type": "Feature",
"geometry":
{
"type": "Point",
"coordinates":
[-86.92142316175699,40.432890018084]
},
"properties":
{
"stop_id": "2439216",
"stop_code": "BUS509SE",
"platform_code": "",
"stop_name": "Tower Dr & Jischke Dr (SE Corner): BUS509SE",
"stop_desc": "",
"zone_id": "",
"stop_url": "",
"location_type": "0",
"parent_station": "",
"stop_timezone": "America/Indiana/Indianapolis",
"position": "",
"direction": "",
"wheelchair_boarding": "0"
}
},
{
"type": "Feature",
"geometry":
{
"type": "Point",
"coordinates":
[-86.92848559999999,40.4241887]
},
"properties":
{
"stop_id": "2439217",
"stop_code": "BUS346",
"platform_code": "",
"stop_name": "State & McCutcheon",
"stop_desc": "",
"zone_id": "",
"stop_url": "",
"location_type": "0",
"parent_station": "",
"stop_timezone": "America/Indiana/Indianapolis",
"position": "",
"direction": "",
"wheelchair_boarding": "0"
}
},
{
"type": "Feature",
"geometry":
{
"type": "Point",
"coordinates":
[-86.923060962053,40.420932705655]
},
"properties":
{
"stop_id": "2439218",
"stop_code": "BUS543NE",
"platform_code": "",
"stop_name": "Gates Rd & Nimitz Dr (NE Corner): BUS543NE",
"stop_desc": "",
"zone_id": "",
"stop_url": "",
"location_type": "0",
"parent_station": "",
"stop_timezone": "America/Indiana/Indianapolis",
"position": "",
"direction": "",
"wheelchair_boarding": "0"
}
},
{
"type": "Feature",
"geometry":
{
"type": "Point",
"coordinates":
[-86.92191016,40.42083594]
},
"properties":
{
"stop_id": "2439219",
"stop_code": "BUS900",
"platform_code": "",
"stop_name": "Discovery Learning Center: BUS900",
"stop_desc": "",
"zone_id": "",
"stop_url": "",
"location_type": "0",
"parent_station": "",
"stop_timezone": "America/Indiana/Indianapolis",
"position": "",
"direction": "",
"wheelchair_boarding": "0"
}
},
{
"type": "Feature",
"geometry":
{
"type": "Point",
"coordinates":
[-86.92187395,40.42333173]
},
"properties":
{
"stop_id": "2439220",
"stop_code": "BUS899",
"platform_code": "",
"stop_name": "Morgan & Jischke Dr (NW Corner): BUS899",
"stop_desc": "",
"zone_id": "",
"stop_url": "",
"location_type": "0",
"parent_station": "",
"stop_timezone": "America/Indiana/Indianapolis",
"position": "",
"direction": "",
"wheelchair_boarding": "0"
}
},
{
"type": "Feature",
"geometry":
{
"type": "Point",
"coordinates":
[-86.945503,40.470824]
},
"properties":
{
"stop_id": "2439221",
"stop_code": "BUS891",
"platform_code": "",
"stop_name": "Paramount Dr and Pacific Dr (SE Corner): BUS891",
"stop_desc": "",
"zone_id": "",
"stop_url": "",
"location_type": "0",
"parent_station": "",
"stop_timezone": "America/Indiana/Indianapolis",
"position": "",
"direction": "",
"wheelchair_boarding": "0"
}
},
{
"type": "Feature",
"geometry":
{
"type": "Point",
"coordinates":
[-86.91019399999999,40.419584]
},
"properties":
{
"stop_id": "2439222",
"stop_code": "BUS294",
"platform_code": "",
"stop_name": "Grant Street Station Apts (at Shelter): BUS294",
"stop_desc": "",
"zone_id": "",
"stop_url": "",
"location_type": "0",
"parent_station": "",
"stop_timezone": "America/Indiana/Indianapolis",
"position": "",
"direction": "",
"wheelchair_boarding": "0"
}
},
{
"type": "Feature",
"geometry":
{
"type": "Point",
"coordinates":
[-86.91017684,40.41856545]
},
"properties":
{
"stop_id": "2439223",
"stop_code": "BUS290",
"platform_code": "",
"stop_name": "Williams St & Grant St (NE Corner): BUS290",
"stop_desc": "",
"zone_id": "",
"stop_url": "",
"location_type": "0",
"parent_station": "",
"stop_timezone": "America/Indiana/Indianapolis",
"position": "",
"direction": "",
"wheelchair_boarding": "0"
}
},
{
"type": "Feature",
"geometry":
{
"type": "Point",
"coordinates":
[-86.9077360973285,40.4184676394363]
},
"properties":
{
"stop_id": "2439224",
"stop_code": "BUS522",
"platform_code": "",
"stop_name": "Williams St & Salisbury St (NW Corner): BUS522",
"stop_desc": "",
"zone_id": "",
"stop_url": "",
"location_type": "0",
"parent_station": "",
"stop_timezone": "America/Indiana/Indianapolis",
"position": "",
"direction": "",
"wheelchair_boarding": "0"
}
},
{
"type": "Feature",
"geometry":
{
"type": "Point",
"coordinates":
[-86.90624,40.419090000000004]
},
"properties":
{
"stop_id": "2439225",
"stop_code": "BUS186",
"platform_code": "",
"stop_name": "River Rd & Williams St (NW Corner): BUS186",
"stop_desc": "",
"zone_id": "",
"stop_url": "",
"location_type": "0",
"parent_station": "",
"stop_timezone": "America/Indiana/Indianapolis",
"position": "",
"direction": "",
"wheelchair_boarding": "0"
}
},
{
"type": "Feature",
"geometry":
{
"type": "Point",
"coordinates":
[-86.90565096385599,40.420205268512994]
},
"properties":
{
"stop_id": "2439226",
"stop_code": "BUS489",
"platform_code": "",
"stop_name": "Wood St & River Rd (SW Corner): BUS489",
"stop_desc": "",
"zone_id": "",
"stop_url": "",
"location_type": "0",
"parent_station": "",
"stop_timezone": "America/Indiana/Indianapolis",
"position": "",
"direction": "",
"wheelchair_boarding": "0"
}
},
{
"type": "Feature",
"geometry":
{
"type": "Point",
"coordinates":
[-86.89295706,40.41919577]
},
"properties":
{
"stop_id": "2439227",
"stop_code": "BUS371",
"platform_code": "",
"stop_name": "Main St & 4th St (NE Corner): BUS371",
"stop_desc": "",
"zone_id": "",
"stop_url": "",
"location_type": "0",
"parent_station": "",
"stop_timezone": "America/Indiana/Indianapolis",
"position": "",
"direction": "",
"wheelchair_boarding": "0"
}
},
{
"type": "Feature",
"geometry":
{
"type": "Point",
"coordinates":
[-86.89168301,40.41920784]
},
"properties":
{
"stop_id": "2439228",
"stop_code": "BUS364",
"platform_code": "",
"stop_name": "Main St & 5th St (NE Corner): BUS364",
"stop_desc": "",
"zone_id": "",
"stop_url": "",
"location_type": "0",
"parent_station": "",
"stop_timezone": "America/Indiana/Indianapolis",
"position": "",
"direction": "",
"wheelchair_boarding": "0"
}
},
{
"type": "Feature",
"geometry":
{
"type": "Point",
"coordinates":
[-86.89048808,40.41919443]
},
"properties":
{
"stop_id": "2439229",
"stop_code": "BUS350",
"platform_code": "",
"stop_name": "Main St & 6th St (NE Corner): BUS350",
"stop_desc": "",
"zone_id": "",
"stop_url": "",
"location_type": "0",
"parent_station": "",
"stop_timezone": "America/Indiana/Indianapolis",
"position": "",
"direction": "",
"wheelchair_boarding": "0"
}
},
{
"type": "Feature",
"geometry":
{
"type": "Point",
"coordinates":
[-86.88761544,40.41921052]
},
"properties":
{
"stop_id": "2439230",
"stop_code": "BUS349",
"platform_code": "",
"stop_name": "Main St & 8th St (NE Corner): BUS349",
"stop_desc": "",
"zone_id": "",
"stop_url": "",
"location_type": "0",
"parent_station": "",
"stop_timezone": "America/Indiana/Indianapolis",
"position": "",
"direction": "",
"wheelchair_boarding": "0"
}
},
{
"type": "Feature",
"geometry":
{
"type": "Point",
"coordinates":
[-86.88691672,40.42012247]
},
"properties":
{
"stop_id": "2439231",
"stop_code": "BUS266",
"platform_code": "",
"stop_name": "9th St & Ferry St (NW Corner): BUS266",
"stop_desc": "",
"zone_id": "",
"stop_url": "",
"location_type": "0",
"parent_station": "",
"stop_timezone": "America/Indiana/Indianapolis",
"position": "",
"direction": "",
"wheelchair_boarding": "0"
}
},
{
"type": "Feature",
"geometry":
{
"type": "Point",
"coordinates":
[-86.92167158071699,40.432917676141]
},
"properties":
{
"stop_id": "2439232",
"stop_code": "BUS509SW",
"platform_code": "",
"stop_name": "Jischke Dr & Tower Dr (SW Corner): BUS509SW",
"stop_desc": "",
"zone_id": "",
"stop_url": "",
"location_type": "0",
"parent_station": "",
"stop_timezone": "America/Indiana/Indianapolis",
"position": "",
"direction": "",
"wheelchair_boarding": "0"
}
},
{
"type": "Feature",
"geometry":
{
"type": "Point",
"coordinates":
[-86.923253841609,40.433161236958]
},
"properties":
{
"stop_id": "2439233",
"stop_code": "BUS472S",
"platform_code": "",
"stop_name": "Hilltop Dr & Tower Dr (SE Corner): BUS472S",
"stop_desc": "",
"zone_id": "",
"stop_url": "",
"location_type": "0",
"parent_station": "",
"stop_timezone": "America/Indiana/Indianapolis",
"position": "",
"direction": "",
"wheelchair_boarding": "0"
}
},
{
"type": "Feature",
"geometry":
{
"type": "Point",
"coordinates":
[-86.92588808033501,40.433118511165]
},
"properties":
{
"stop_id": "2439234",
"stop_code": "BUS562S",
"platform_code": "",
"stop_name": "Theta Chi on Tower Dr (South): BUS562S",
"stop_desc": "",
"zone_id": "",
"stop_url": "",
"location_type": "0",
"parent_station": "",
"stop_timezone": "America/Indiana/Indianapolis",
"position": "",
"direction": "",
"wheelchair_boarding": "0"
}
},
{
"type": "Feature",
"geometry":
{
"type": "Point",
"coordinates":
[-86.92585241045099,40.434360399781]
},
"properties":
{
"stop_id": "2439235",
"stop_code": "BUS554W",
"platform_code": "",
"stop_name": "Alpha Chi on David Ross Rd (West): BUS554W",
"stop_desc": "",
"zone_id": "",
"stop_url": "",
"location_type": "0",
"parent_station": "",
"stop_timezone": "America/Indiana/Indianapolis",
"position": "",
"direction": "",
"wheelchair_boarding": "0"
}
},
{
"type": "Feature",
"geometry":
{
"type": "Point",
"coordinates":
[-86.88228454,40.42791563]
},
"properties":
{
"stop_id": "2439236",
"stop_code": "BUS546N",
"platform_code": "",
"stop_name": "14th St & Hartford St (NW Corner): BUS546N",
"stop_desc": "",
"zone_id": "",
"stop_url": "",
"location_type": "0",
"parent_station": "",
"stop_timezone": "America/Indiana/Indianapolis",
"position": "",
"direction": "",
"wheelchair_boarding": "0"
}
},
{
"type": "Feature",
"geometry":
{
"type": "Point",
"coordinates":
[-86.88233014,40.42911323]
},
"properties":
{
"stop_id": "2439237",
"stop_code": "BUS786",
"platform_code": "",
"stop_name": "St Anthony Health Care: BUS786",
"stop_desc": "",
"zone_id": "",
"stop_url": "",
"location_type": "0",
"parent_station": "",
"stop_timezone": "America/Indiana/Indianapolis",
"position": "",
"direction": "",
"wheelchair_boarding": "0"
}
},
{
"type": "Feature",
"geometry":
{
"type": "Point",
"coordinates":
[-86.88241061,40.43040204]
},
"properties":
{
"stop_id": "2439238",
"stop_code": "BUS787",
"platform_code": "",
"stop_name": "14th St & Howell St (NW Corner): BUS787",
"stop_desc": "",
"zone_id": "",
"stop_url": "",
"location_type": "0",
"parent_station": "",
"stop_timezone": "America/Indiana/Indianapolis",
"position": "",
"direction": "",
"wheelchair_boarding": "0"
}
},
{
"type": "Feature",
"geometry":
{
"type": "Point",
"coordinates":
[-86.882389958235,40.431770848363]
},
"properties":
{
"stop_id": "2439239",
"stop_code": "BUS508SW",
"platform_code": "",
"stop_name": "14th St & Greenbush St (South of): BUS508SW",
"stop_desc": "",
"zone_id": "",
"stop_url": "",
"location_type": "0",
"parent_station": "",
"stop_timezone": "America/Indiana/Indianapolis",
"position": "",
"direction": "",
"wheelchair_boarding": "0"
}
},
{
"type": "Feature",
"geometry":
{
"type": "Point",
"coordinates":
[-86.88150094602699,40.432238481211]
},
"properties":
{
"stop_id": "2439240",
"stop_code": "BUS348",
"platform_code": "",
"stop_name": "Greenbush St & 15th St (NW Corner): BUS348",
"stop_desc": "",
"zone_id": "",
"stop_url": "",
"location_type": "0",
"parent_station": "",
"stop_timezone": "America/Indiana/Indianapolis",
"position": "",
"direction": "",
"wheelchair_boarding": "0"
}
},
{
"type": "Feature",
"geometry":
{
"type": "Point",
"coordinates":
[-86.88151973048402,40.433375360841]
},
"properties":
{
"stop_id": "2439241",
"stop_code": "BUS862",
"platform_code": "",
"stop_name": "Ball St & 15th St (NW Corner): BUS862",
"stop_desc": "",
"zone_id": "",
"stop_url": "",
"location_type": "0",
"parent_station": "",
"stop_timezone": "America/Indiana/Indianapolis",
"position": "",
"direction": "",
"wheelchair_boarding": "0"
}
},
{
"type": "Feature",
"geometry":
{
"type": "Point",
"coordinates":
[-86.88155148195601,40.43628044654]
},
"properties":
{
"stop_id": "2439242",
"stop_code": "BUS861",
"platform_code": "",
"stop_name": "Hart St & 15th St (NW Corner): BUS861",
"stop_desc": "",
"zone_id": "",
"stop_url": "",
"location_type": "0",
"parent_station": "",
"stop_timezone": "America/Indiana/Indianapolis",
"position": "",
"direction": "",
"wheelchair_boarding": "0"
}
},
{
"type": "Feature",
"geometry":
{
"type": "Point",
"coordinates":
[-86.881319336861,40.438676529919]
},
"properties":
{
"stop_id": "2439243",
"stop_code": "BUS860",
"platform_code": "",
"stop_name": "Barbee St & Schuyler Ave (at Shelter): BUS860",
"stop_desc": "",
"zone_id": "",
"stop_url": "",
"location_type": "0",
"parent_station": "",
"stop_timezone": "America/Indiana/Indianapolis",
"position": "",
"direction": "",
"wheelchair_boarding": "0"
}
},
{
"type": "Feature",
"geometry":
{
"type": "Point",
"coordinates":
[-86.879370497195,40.439835547127]
},
"properties":
{
"stop_id": "2439244",
"stop_code": "BUS859",
"platform_code": "",
"stop_name": "Star Lanes on Schuyler Ave: BUS859",
"stop_desc": "",
"zone_id": "",
"stop_url": "",
"location_type": "0",
"parent_station": "",
"stop_timezone": "America/Indiana/Indianapolis",
"position": "",
"direction": "",
"wheelchair_boarding": "0"
}
},
{
"type": "Feature",
"geometry":
{
"type": "Point",
"coordinates":
[-86.87729915427299,40.440697044005]
},
"properties":
{
"stop_id": "2439245",
"stop_code": "BUS858",
"platform_code": "",
"stop_name": "Schuyler Ave & 18th St (NE Corner): BUS858",
"stop_desc": "",
"zone_id": "",
"stop_url": "",
"location_type": "0",
"parent_station": "",
"stop_timezone": "America/Indiana/Indianapolis",
"position": "",
"direction": "",
"wheelchair_boarding": "0"
}
},
{
"type": "Feature",
"geometry":
{
"type": "Point",
"coordinates":
[-86.87445116753099,40.441895507944004]
},
"properties":
{
"stop_id": "2439246",
"stop_code": "BUS227",
"platform_code": "",
"stop_name": "Schuyler Ave & 20th St (NE Corner): BUS227",
"stop_desc": "",
"zone_id": "",
"stop_url": "",
"location_type": "0",
"parent_station": "",
"stop_timezone": "America/Indiana/Indianapolis",
"position": "",
"direction": "",
"wheelchair_boarding": "0"
}
},
{
"type": "Feature",
"geometry":
{
"type": "Point",
"coordinates":
[-86.8726648,40.44248807]
},
"properties":
{
"stop_id": "2439247",
"stop_code": "BUS863",
"platform_code": "",
"stop_name": "21st St & Schuyler Ave (NE Corner): BUS863",
"stop_desc": "",
"zone_id": "",
"stop_url": "",
"location_type": "0",
"parent_station": "",
"stop_timezone": "America/Indiana/Indianapolis",
"position": "",
"direction": "",
"wheelchair_boarding": "0"
}
},
{
"type": "Feature",
"geometry":
{
"type": "Point",
"coordinates":
[-86.86962988,40.44208574]
},
"properties":
{
"stop_id": "2439248",
"stop_code": "BUS246",
"platform_code": "",
"stop_name": "24th St & Schuyler Ave (South of): BUS246",
"stop_desc": "",
"zone_id": "",
"stop_url": "",
"location_type": "0",
"parent_station": "",
"stop_timezone": "America/Indiana/Indianapolis",
"position": "",
"direction": "",
"wheelchair_boarding": "0"
}
},
{
"type": "Feature",
"geometry":
{
"type": "Point",
"coordinates":
[-86.86964195,40.43978575]
},
"properties":
{
"stop_id": "2439249",
"stop_code": "BUS854",
"platform_code": "",
"stop_name": "Albany St & 24th St (SE Corner): BUS854",
"stop_desc": "",
"zone_id": "",
"stop_url": "",
"location_type": "0",
"parent_station": "",
"stop_timezone": "America/Indiana/Indianapolis",
"position": "",
"direction": "",
"wheelchair_boarding": "0"
}
},
{
"type": "Feature",
"geometry":
{
"type": "Point",
"coordinates":
[-86.86962988,40.43780896]
},
"properties":
{
"stop_id": "2439250",
"stop_code": "BUS353",
"platform_code": "",
"stop_name": "24th St & Underwood St (North of): BUS353",
"stop_desc": "",
"zone_id": "",
"stop_url": "",
"location_type": "0",
"parent_station": "",
"stop_timezone": "America/Indiana/Indianapolis",
"position": "",
"direction": "",
"wheelchair_boarding": "0"
}
},
{
"type": "Feature",
"geometry":
{
"type": "Point",
"coordinates":
[-86.87138136,40.43772715]
},
"properties":
{
"stop_id": "2439251",
"stop_code": "BUS937",
"platform_code": "",
"stop_name": "22nd St & Underwood St (SW Corner): BUS937",
"stop_desc": "",
"zone_id": "",
"stop_url": "",
"location_type": "0",
"parent_station": "",
"stop_timezone": "America/Indiana/Indianapolis",
"position": "",
"direction": "",
"wheelchair_boarding": "0"
}
},
{
"type": "Feature",
"geometry":
{
"type": "Point",
"coordinates":
[-86.874463468963,40.437674145628]
},
"properties":
{
"stop_id": "2439252",
"stop_code": "BUS274",
"platform_code": "",
"stop_name": "Underwood St & 20th St (SE Corner): BUS274",
"stop_desc": "",
"zone_id": "",
"stop_url": "",
"location_type": "0",
"parent_station": "",
"stop_timezone": "America/Indiana/Indianapolis",
"position": "",
"direction": "",
"wheelchair_boarding": "0"
}
},
{
"type": "Feature",
"geometry":
{
"type": "Point",
"coordinates":
[-86.874444898649,40.435696508364]
},
"properties":
{
"stop_id": "2439253",
"stop_code": "BUS852",
"platform_code": "",
"stop_name": "Perrine St & 20th St (SE Corner): BUS852",
"stop_desc": "",
"zone_id": "",
"stop_url": "",
"location_type": "0",
"parent_station": "",
"stop_timezone": "America/Indiana/Indianapolis",
"position": "",
"direction": "",
"wheelchair_boarding": "0"
}
},
{
"type": "Feature",
"geometry":
{
"type": "Point",
"coordinates":
[-86.874417741105,40.433772346208]
},
"properties":
{
"stop_id": "2439254",
"stop_code": "BUS851",
"platform_code": "",
"stop_name": "Meharry St & 20th St (SE Corner): BUS851",
"stop_desc": "",
"zone_id": "",
"stop_url": "",
"location_type": "0",
"parent_station": "",
"stop_timezone": "America/Indiana/Indianapolis",
"position": "",
"direction": "",
"wheelchair_boarding": "0"
}
},
{
"type": "Feature",
"geometry":
{
"type": "Point",
"coordinates":
[-86.87437800000001,40.432693]
},
"properties":
{
"stop_id": "2439255",
"stop_code": "BUS850",
"platform_code": "",
"stop_name": "Wabash Center on 20th St (at Shelter): BUS850",
"stop_desc": "",
"zone_id": "",
"stop_url": "",
"location_type": "0",
"parent_station": "",
"stop_timezone": "America/Indiana/Indianapolis",
"position": "",
"direction": "",
"wheelchair_boarding": "0"
}
},
{
"type": "Feature",
"geometry":
{
"type": "Point",
"coordinates":
[-86.87891971,40.43199661]
},
"properties":
{
"stop_id": "2439256",
"stop_code": "BUS452",
"platform_code": "",
"stop_name": "Greenbush St & 17 St  (SE Corner): BUS452",
"stop_desc": "",
"zone_id": "",
"stop_url": "",
"location_type": "0",
"parent_station": "",
"stop_timezone": "America/Indiana/Indianapolis",
"position": "",
"direction": "",
"wheelchair_boarding": "0"
}
},
{
"type": "Feature",
"geometry":
{
"type": "Point",
"coordinates":
[-86.87888754630899,40.430082347810995]
},
"properties":
{
"stop_id": "2439257",
"stop_code": "BUS849",
"platform_code": "",
"stop_name": "17th St & Howell St (SE Corner): BUS849",
"stop_desc": "",
"zone_id": "",
"stop_url": "",
"location_type": "0",
"parent_station": "",
"stop_timezone": "America/Indiana/Indianapolis",
"position": "",
"direction": "",
"wheelchair_boarding": "0"
}
},
{
"type": "Feature",
"geometry":
{
"type": "Point",
"coordinates":
[-86.878846512463,40.428465068075]
},
"properties":
{
"stop_id": "2439258",
"stop_code": "BUS451",
"platform_code": "",
"stop_name": "Riggs Community Health Clinic (@Shelter): BUS451",
"stop_desc": "",
"zone_id": "",
"stop_url": "",
"location_type": "0",
"parent_station": "",
"stop_timezone": "America/Indiana/Indianapolis",
"position": "",
"direction": "",
"wheelchair_boarding": "0"
}
},
{
"type": "Feature",
"geometry":
{
"type": "Point",
"coordinates":
[-86.879189,40.426423]
},
"properties":
{
"stop_id": "2439259",
"stop_code": "BUS488",
"platform_code": "",
"stop_name": "17th St & Tippecanoe St (SW Corner): BUS488",
"stop_desc": "",
"zone_id": "",
"stop_url": "",
"location_type": "0",
"parent_station": "",
"stop_timezone": "America/Indiana/Indianapolis",
"position": "",
"direction": "",
"wheelchair_boarding": "0"
}
},
{
"type": "Feature",
"geometry":
{
"type": "Point",
"coordinates":
[-86.881327179484,40.426416185267]
},
"properties":
{
"stop_id": "2439260",
"stop_code": "BUS847",
"platform_code": "",
"stop_name": "Tippecanoe & 14th St (East of): BUS847",
"stop_desc": "",
"zone_id": "",
"stop_url": "",
"location_type": "0",
"parent_station": "",
"stop_timezone": "America/Indiana/Indianapolis",
"position": "",
"direction": "",
"wheelchair_boarding": "0"
}
},
{
"type": "Feature",
"geometry":
{
"type": "Point",
"coordinates":
[-86.88237048529601,40.427661199583994]
},
"properties":
{
"stop_id": "2439261",
"stop_code": "BUS546W",
"platform_code": "",
"stop_name": "Hartford St & 14th St (at Shelter): BUS546W",
"stop_desc": "",
"zone_id": "",
"stop_url": "",
"location_type": "0",
"parent_station": "",
"stop_timezone": "America/Indiana/Indianapolis",
"position": "",
"direction": "",
"wheelchair_boarding": "0"
}
},
{
"type": "Feature",
"geometry":
{
"type": "Point",
"coordinates":
[-86.884330428528,40.42766177519]
},
"properties":
{
"stop_id": "2439262",
"stop_code": "BUS789SW",
"platform_code": "",
"stop_name": "Hartford St & 12th St (SW Corner): BUS789SW",
"stop_desc": "",
"zone_id": "",
"stop_url": "",
"location_type": "0",
"parent_station": "",
"stop_timezone": "America/Indiana/Indianapolis",
"position": "",
"direction": "",
"wheelchair_boarding": "0"
}
},
{
"type": "Feature",
"geometry":
{
"type": "Point",
"coordinates":
[-86.93061034988199,40.422239091743]
},
"properties":
{
"stop_id": "2439263",
"stop_code": "BUS417SW",
"platform_code": "",
"stop_name": "Airport Rd & Nimitz Dr (SW Corner): BUS417SW",
"stop_desc": "",
"zone_id": "",
"stop_url": "",
"location_type": "0",
"parent_station": "",
"stop_timezone": "America/Indiana/Indianapolis",
"position": "",
"direction": "",
"wheelchair_boarding": "0"
}
},
{
"type": "Feature",
"geometry":
{
"type": "Point",
"coordinates":
[-86.929038408766,40.425539970155]
},
"properties":
{
"stop_id": "2439264",
"stop_code": "BUS491W",
"platform_code": "",
"stop_name": "McCutcheon Hall on McCutcheon: BUS491W",
"stop_desc": "",
"zone_id": "",
"stop_url": "",
"location_type": "0",
"parent_station": "",
"stop_timezone": "America/Indiana/Indianapolis",
"position": "",
"direction": "",
"wheelchair_boarding": "0"
}
},
{
"type": "Feature",
"geometry":
{
"type": "Point",
"coordinates":
[-86.92174959241899,40.427401755043]
},
"properties":
{
"stop_id": "2439265",
"stop_code": "BUS107",
"platform_code": "",
"stop_name": "Jischke Dr & 3rd St (NE Corner): BUS107",
"stop_desc": "",
"zone_id": "",
"stop_url": "",
"location_type": "0",
"parent_station": "",
"stop_timezone": "America/Indiana/Indianapolis",
"position": "",
"direction": "",
"wheelchair_boarding": "0"
}
},
{
"type": "Feature",
"geometry":
{
"type": "Point",
"coordinates":
[-86.91496324,40.425447999999996]
},
"properties":
{
"stop_id": "2439266",
"stop_code": "BUS064",
"platform_code": "",
"stop_name": "University Hall: BUS064",
"stop_desc": "",
"zone_id": "",
"stop_url": "",
"location_type": "0",
"parent_station": "",
"stop_timezone": "America/Indiana/Indianapolis",
"position": "",
"direction": "",
"wheelchair_boarding": "0"
}
},
{
"type": "Feature",
"geometry":
{
"type": "Point",
"coordinates":
[-86.92636257780501,40.42732297372]
},
"properties":
{
"stop_id": "2439267",
"stop_code": "BUS470",
"platform_code": "",
"stop_name": "Hillenbrand Hall on 3rd St (South): BUS470",
"stop_desc": "",
"zone_id": "",
"stop_url": "",
"location_type": "0",
"parent_station": "",
"stop_timezone": "America/Indiana/Indianapolis",
"position": "",
"direction": "",
"wheelchair_boarding": "0"
}
},
{
"type": "Feature",
"geometry":
{
"type": "Point",
"coordinates":
[-86.930331287471,40.422397759076]
},
"properties":
{
"stop_id": "2439269",
"stop_code": "BUS417NE",
"platform_code": "",
"stop_name": "Airport Rd & Nimitz Dr (NE Corner): BUS417NE",
"stop_desc": "",
"zone_id": "",
"stop_url": "",
"location_type": "0",
"parent_station": "",
"stop_timezone": "America/Indiana/Indianapolis",
"position": "",
"direction": "",
"wheelchair_boarding": "0"
}
},
{
"type": "Feature",
"geometry":
{
"type": "Point",
"coordinates":
[-86.92728182001801,40.421854934578]
},
"properties":
{
"stop_id": "2439270",
"stop_code": "BUS483N",
"platform_code": "",
"stop_name": "Marshall Dr & Nimitz Dr (NE Corner): BUS483N",
"stop_desc": "",
"zone_id": "",
"stop_url": "",
"location_type": "0",
"parent_station": "",
"stop_timezone": "America/Indiana/Indianapolis",
"position": "",
"direction": "",
"wheelchair_boarding": "0"
}
},
{
"type": "Feature",
"geometry":
{
"type": "Point",
"coordinates":
[-86.92638945,40.42126375]
},
"properties":
{
"stop_id": "2439271",
"stop_code": "BUS272N",
"platform_code": "",
"stop_name": "Halsey Dr & Nimitz Dr (NE Corner): BUS272N",
"stop_desc": "",
"zone_id": "",
"stop_url": "",
"location_type": "0",
"parent_station": "",
"stop_timezone": "America/Indiana/Indianapolis",
"position": "",
"direction": "",
"wheelchair_boarding": "0"
}
},
{
"type": "Feature",
"geometry":
{
"type": "Point",
"coordinates":
[-86.924496519485,40.420925791782]
},
"properties":
{
"stop_id": "2439272",
"stop_code": "BUS319N",
"platform_code": "",
"stop_name": "Arnold Dr & Nimitz Dr (NE Corner): BUS319N",
"stop_desc": "",
"zone_id": "",
"stop_url": "",
"location_type": "0",
"parent_station": "",
"stop_timezone": "America/Indiana/Indianapolis",
"position": "",
"direction": "",
"wheelchair_boarding": "0"
}
},
{
"type": "Feature",
"geometry":
{
"type": "Point",
"coordinates":
[-86.929433874802,40.419907777913]
},
"properties":
{
"stop_id": "2439273",
"stop_code": "BUS217",
"platform_code": "",
"stop_name": "Purdue Village Bldg 142 (at Shelter): BUS217",
"stop_desc": "",
"zone_id": "",
"stop_url": "",
"location_type": "0",
"parent_station": "",
"stop_timezone": "America/Indiana/Indianapolis",
"position": "",
"direction": "",
"wheelchair_boarding": "0"
}
},
{
"type": "Feature",
"geometry":
{
"type": "Point",
"coordinates":
[-86.9307536451588,40.42749987614079]
},
"properties":
{
"stop_id": "2439274",
"stop_code": "BUS501",
"platform_code": "",
"stop_name": "McCormick Rd & Third St : BUS501",
"stop_desc": "",
"zone_id": "",
"stop_url": "",
"location_type": "0",
"parent_station": "",
"stop_timezone": "America/Indiana/Indianapolis",
"position": "",
"direction": "",
"wheelchair_boarding": "0"
}
},
{
"type": "Feature",
"geometry":
{
"type": "Point",
"coordinates":
[-86.93262156,40.43095189]
},
"properties":
{
"stop_id": "2439275",
"stop_code": "BUS251W",
"platform_code": "",
"stop_name": "Stadium Ave & McCormick Rd (NW Corner): BUS251W",
"stop_desc": "",
"zone_id": "",
"stop_url": "",
"location_type": "0",
"parent_station": "",
"stop_timezone": "America/Indiana/Indianapolis",
"position": "",
"direction": "",
"wheelchair_boarding": "0"
}
},
{
"type": "Feature",
"geometry":
{
"type": "Point",
"coordinates":
[-86.93612587,40.43575304]
},
"properties":
{
"stop_id": "2439276",
"stop_code": "BUS906W",
"platform_code": "",
"stop_name": "Schwartz Tennis Cntr on McCormick (West): BUS906W",
"stop_desc": "",
"zone_id": "",
"stop_url": "",
"location_type": "0",
"parent_station": "",
"stop_timezone": "America/Indiana/Indianapolis",
"position": "",
"direction": "",
"wheelchair_boarding": "0"
}
},
{
"type": "Feature",
"geometry":
{
"type": "Point",
"coordinates":
[-86.9424981122,40.442793674120004]
},
"properties":
{
"stop_id": "2439277",
"stop_code": "BUS394",
"platform_code": "",
"stop_name": "SW Blackbird Farms Apt Buildings (W): BUS394",
"stop_desc": "",
"zone_id": "",
"stop_url": "",
"location_type": "0",
"parent_station": "",
"stop_timezone": "America/Indiana/Indianapolis",
"position": "",
"direction": "",
"wheelchair_boarding": "0"
}
},
{
"type": "Feature",
"geometry":
{
"type": "Point",
"coordinates":
[-86.91024121,40.42197588]
},
"properties":
{
"stop_id": "2439278",
"stop_code": "BUS320",
"platform_code": "",
"stop_name": "Grant St & Wood St (SE Corner): BUS320",
"stop_desc": "",
"zone_id": "",
"stop_url": "",
"location_type": "0",
"parent_station": "",
"stop_timezone": "America/Indiana/Indianapolis",
"position": "",
"direction": "",
"wheelchair_boarding": "0"
}
},
{
"type": "Feature",
"geometry":
{
"type": "Point",
"coordinates":
[-86.91043161007799,40.420234896124]
},
"properties":
{
"stop_id": "2439279",
"stop_code": "BUS598",
"platform_code": "",
"stop_name": "Harrison St & Grant St (SW Corner): BUS598",
"stop_desc": "",
"zone_id": "",
"stop_url": "",
"location_type": "0",
"parent_station": "",
"stop_timezone": "America/Indiana/Indianapolis",
"position": "",
"direction": "",
"wheelchair_boarding": "0"
}
},
{
"type": "Feature",
"geometry":
{
"type": "Point",
"coordinates":
[-86.91504773,40.42031022]
},
"properties":
{
"stop_id": "2439280",
"stop_code": "BUS324",
"platform_code": "",
"stop_name": "Lynn Hall on Harrison St: BUS324",
"stop_desc": "",
"zone_id": "",
"stop_url": "",
"location_type": "0",
"parent_station": "",
"stop_timezone": "America/Indiana/Indianapolis",
"position": "",
"direction": "",
"wheelchair_boarding": "0"
}
},
{
"type": "Feature",
"geometry":
{
"type": "Point",
"coordinates":
[-86.919811,40.420266999999996]
},
"properties":
{
"stop_id": "2439281",
"stop_code": "BUS440",
"platform_code": "",
"stop_name": "Harrison St and S Russell St (SW Corner): BUS440",
"stop_desc": "",
"zone_id": "",
"stop_url": "",
"location_type": "0",
"parent_station": "",
"stop_timezone": "America/Indiana/Indianapolis",
"position": "",
"direction": "",
"wheelchair_boarding": "0"
}
},
{
"type": "Feature",
"geometry":
{
"type": "Point",
"coordinates":
[-86.92317347093001,40.420718972697]
},
"properties":
{
"stop_id": "2439282",
"stop_code": "BUS543SE",
"platform_code": "",
"stop_name": "Gates Rd & Nimitz Dr (SE Corner): BUS543SE",
"stop_desc": "",
"zone_id": "",
"stop_url": "",
"location_type": "0",
"parent_station": "",
"stop_timezone": "America/Indiana/Indianapolis",
"position": "",
"direction": "",
"wheelchair_boarding": "0"
}
},
{
"type": "Feature",
"geometry":
{
"type": "Point",
"coordinates":
[-86.92404401909201,40.419450688256]
},
"properties":
{
"stop_id": "2439283",
"stop_code": "BUS249",
"platform_code": "",
"stop_name": "Discovery Parking Lot (at Shelter): BUS249",
"stop_desc": "",
"zone_id": "",
"stop_url": "",
"location_type": "0",
"parent_station": "",
"stop_timezone": "America/Indiana/Indianapolis",
"position": "",
"direction": "",
"wheelchair_boarding": "0"
}
},
{
"type": "Feature",
"geometry":
{
"type": "Point",
"coordinates":
[-86.903690604136,40.42626623049]
},
"properties":
{
"stop_id": "2439284",
"stop_code": "BUS402",
"platform_code": "",
"stop_name": "Littleton St & Wiggins St: BUS402",
"stop_desc": "",
"zone_id": "",
"stop_url": "",
"location_type": "0",
"parent_station": "",
"stop_timezone": "America/Indiana/Indianapolis",
"position": "",
"direction": "",
"wheelchair_boarding": "0"
}
},
{
"type": "Feature",
"geometry":
{
"type": "Point",
"coordinates":
[-86.91333101895121,40.4314346742221]
},
"properties":
{
"stop_id": "2439285",
"stop_code": "BUS530N",
"platform_code": "",
"stop_name": "Stadium Ave & Garfield St: BUS530N",
"stop_desc": "",
"zone_id": "",
"stop_url": "",
"location_type": "0",
"parent_station": "",
"stop_timezone": "America/Indiana/Indianapolis",
"position": "",
"direction": "",
"wheelchair_boarding": "1"
}
},
{
"type": "Feature",
"geometry":
{
"type": "Point",
"coordinates":
[-86.91018757,40.43095725]
},
"properties":
{
"stop_id": "2439286",
"stop_code": "BUS634",
"platform_code": "",
"stop_name": "Stadium Ave & Grant St (NE Corner): BUS634",
"stop_desc": "",
"zone_id": "",
"stop_url": "",
"location_type": "0",
"parent_station": "",
"stop_timezone": "America/Indiana/Indianapolis",
"position": "",
"direction": "",
"wheelchair_boarding": "0"
}
},
{
"type": "Feature",
"geometry":
{
"type": "Point",
"coordinates":
[-86.908002047167,40.430891004875]
},
"properties":
{
"stop_id": "2439287",
"stop_code": "BUS647",
"platform_code": "",
"stop_name": "Stadium Ave & Vine St (NE Corner): BUS647",
"stop_desc": "",
"zone_id": "",
"stop_url": "",
"location_type": "0",
"parent_station": "",
"stop_timezone": "America/Indiana/Indianapolis",
"position": "",
"direction": "",
"wheelchair_boarding": "0"
}
},
{
"type": "Feature",
"geometry":
{
"type": "Point",
"coordinates":
[-86.905772196269,40.430920937029]
},
"properties":
{
"stop_id": "2439288",
"stop_code": "BUS291NW",
"platform_code": "",
"stop_name": "Salisbury St & Stadium Ave (NW Corner): BUS291NW",
"stop_desc": "",
"zone_id": "",
"stop_url": "",
"location_type": "0",
"parent_station": "",
"stop_timezone": "America/Indiana/Indianapolis",
"position": "",
"direction": "",
"wheelchair_boarding": "0"
}
},
{
"type": "Feature",
"geometry":
{
"type": "Point",
"coordinates":
[-86.905837163302,40.432758341539]
},
"properties":
{
"stop_id": "2439289",
"stop_code": "BUS636NW",
"platform_code": "",
"stop_name": "Salisbury St & Dehart St (NW Corner): BUS636NW",
"stop_desc": "",
"zone_id": "",
"stop_url": "",
"location_type": "0",
"parent_station": "",
"stop_timezone": "America/Indiana/Indianapolis",
"position": "",
"direction": "",
"wheelchair_boarding": "0"
}
},
{
"type": "Feature",
"geometry":
{
"type": "Point",
"coordinates":
[-86.90592533300399,40.435307764004]
},
"properties":
{
"stop_id": "2439290",
"stop_code": "BUS333NW",
"platform_code": "",
"stop_name": "Salisbury St & Meridian St (NW Corner): BUS333NW",
"stop_desc": "",
"zone_id": "",
"stop_url": "",
"location_type": "0",
"parent_station": "",
"stop_timezone": "America/Indiana/Indianapolis",
"position": "",
"direction": "",
"wheelchair_boarding": "0"
}
},
{
"type": "Feature",
"geometry":
{
"type": "Point",
"coordinates":
[-86.906183081123,40.436830302638995]
},
"properties":
{
"stop_id": "2439291",
"stop_code": "BUS224",
"platform_code": "",
"stop_name": "Salisbury St & Leslie Ave (NW Corner): BUS224",
"stop_desc": "",
"zone_id": "",
"stop_url": "",
"location_type": "0",
"parent_station": "",
"stop_timezone": "America/Indiana/Indianapolis",
"position": "",
"direction": "",
"wheelchair_boarding": "0"
}
},
{
"type": "Feature",
"geometry":
{
"type": "Point",
"coordinates":
[-86.907732887347,40.438963945958]
},
"properties":
{
"stop_id": "2439292",
"stop_code": "BUS637NW",
"platform_code": "",
"stop_name": "Salisbury St & Rockland Dr (NW Corner): BUS637NW",
"stop_desc": "",
"zone_id": "",
"stop_url": "",
"location_type": "0",
"parent_station": "",
"stop_timezone": "America/Indiana/Indianapolis",
"position": "",
"direction": "",
"wheelchair_boarding": "0"
}
},
{
"type": "Feature",
"geometry":
{
"type": "Point",
"coordinates":
[-86.910466856906,40.441481649113]
},
"properties":
{
"stop_id": "2439293",
"stop_code": "BUS582",
"platform_code": "",
"stop_name": "Salisbury St & Grant St (South of): BUS582",
"stop_desc": "",
"zone_id": "",
"stop_url": "",
"location_type": "0",
"parent_station": "",
"stop_timezone": "America/Indiana/Indianapolis",
"position": "",
"direction": "",
"wheelchair_boarding": "0"
}
},
{
"type": "Feature",
"geometry":
{
"type": "Point",
"coordinates":
[-86.912738889528,40.442998409097]
},
"properties":
{
"stop_id": "2439294",
"stop_code": "BUS924",
"platform_code": "",
"stop_name": "Salisbury St & Riley Ln (South of): BUS924",
"stop_desc": "",
"zone_id": "",
"stop_url": "",
"location_type": "0",
"parent_station": "",
"stop_timezone": "America/Indiana/Indianapolis",
"position": "",
"direction": "",
"wheelchair_boarding": "0"
}
},
{
"type": "Feature",
"geometry":
{
"type": "Point",
"coordinates":
[-86.914344202234,40.445924596848]
},
"properties":
{
"stop_id": "2439295",
"stop_code": "BUS365NW",
"platform_code": "",
"stop_name": "Salisbury St & Lindberg Rd (NW Corner): BUS365NW",
"stop_desc": "",
"zone_id": "",
"stop_url": "",
"location_type": "0",
"parent_station": "",
"stop_timezone": "America/Indiana/Indianapolis",
"position": "",
"direction": "",
"wheelchair_boarding": "0"
}
},
{
"type": "Feature",
"geometry":
{
"type": "Point",
"coordinates":
[-86.915880250168,40.448284251844]
},
"properties":
{
"stop_id": "2439296",
"stop_code": "BUS633NW",
"platform_code": "",
"stop_name": "Salisbury St & Sycamore Ln (NW Corner): BUS633NW",
"stop_desc": "",
"zone_id": "",
"stop_url": "",
"location_type": "0",
"parent_station": "",
"stop_timezone": "America/Indiana/Indianapolis",
"position": "",
"direction": "",
"wheelchair_boarding": "0"
}
},
{
"type": "Feature",
"geometry":
{
"type": "Point",
"coordinates":
[-86.91585507,40.45122269]
},
"properties":
{
"stop_id": "2439297",
"stop_code": "BUS293",
"platform_code": "",
"stop_name": "Salisbury St & Navajo St (at Shelter): BUS293",
"stop_desc": "",
"zone_id": "",
"stop_url": "",
"location_type": "0",
"parent_station": "",
"stop_timezone": "America/Indiana/Indianapolis",
"position": "",
"direction": "",
"wheelchair_boarding": "0"
}
},
{
"type": "Feature",
"geometry":
{
"type": "Point",
"coordinates":
[-86.91577729,40.45542168]
},
"properties":
{
"stop_id": "2439298",
"stop_code": "BUS149",
"platform_code": "",
"stop_name": "Salisbury St & Kent Ave (at Shelter): BUS149",
"stop_desc": "",
"zone_id": "",
"stop_url": "",
"location_type": "0",
"parent_station": "",
"stop_timezone": "America/Indiana/Indianapolis",
"position": "",
"direction": "",
"wheelchair_boarding": "0"
}
},
{
"type": "Feature",
"geometry":
{
"type": "Point",
"coordinates":
[-86.91580277,40.45704576]
},
"properties":
{
"stop_id": "2439299",
"stop_code": "BUS130",
"platform_code": "",
"stop_name": "Westminster Village S & Salisbury (NW): BUS130",
"stop_desc": "",
"zone_id": "",
"stop_url": "",
"location_type": "0",
"parent_station": "",
"stop_timezone": "America/Indiana/Indianapolis",
"position": "",
"direction": "",
"wheelchair_boarding": "0"
}
},
{
"type": "Feature",
"geometry":
{
"type": "Point",
"coordinates":
[-86.91574590000299,40.458561514635]
},
"properties":
{
"stop_id": "2439300",
"stop_code": "BUS131W",
"platform_code": "",
"stop_name": "N Salisbury St & Westminster Village N: BUS131W",
"stop_desc": "",
"zone_id": "",
"stop_url": "",
"location_type": "0",
"parent_station": "",
"stop_timezone": "America/Indiana/Indianapolis",
"position": "",
"direction": "",
"wheelchair_boarding": "0"
}
},
{
"type": "Feature",
"geometry":
{
"type": "Point",
"coordinates":
[-86.91580411,40.46038511]
},
"properties":
{
"stop_id": "2439301",
"stop_code": "BUS138",
"platform_code": "",
"stop_name": "Cumberland Ave & Salisbury St(SW Corner): BUS138",
"stop_desc": "",
"zone_id": "",
"stop_url": "",
"location_type": "0",
"parent_station": "",
"stop_timezone": "America/Indiana/Indianapolis",
"position": "",
"direction": "",
"wheelchair_boarding": "0"
}
},
{
"type": "Feature",
"geometry":
{
"type": "Point",
"coordinates":
[-86.91892084,40.46039584]
},
"properties":
{
"stop_id": "2439302",
"stop_code": "BUS133",
"platform_code": "",
"stop_name": "Cumberland Pointe on Cumberland Ave(South): BUS133",
"stop_desc": "",
"zone_id": "",
"stop_url": "",
"location_type": "0",
"parent_station": "",
"stop_timezone": "America/Indiana/Indianapolis",
"position": "",
"direction": "",
"wheelchair_boarding": "0"
}
},
{
"type": "Feature",
"geometry":
{
"type": "Point",
"coordinates":
[-86.92061,40.460570000000004]
},
"properties":
{
"stop_id": "2439303",
"stop_code": "BUS136",
"platform_code": "",
"stop_name": "Cumberland Ave & Manchester St (SW Corner): BUS136",
"stop_desc": "",
"zone_id": "",
"stop_url": "",
"location_type": "0",
"parent_station": "",
"stop_timezone": "America/Indiana/Indianapolis",
"position": "",
"direction": "",
"wheelchair_boarding": "0"
}
},
{
"type": "Feature",
"geometry":
{
"type": "Point",
"coordinates":
[-86.92491,40.46062]
},
"properties":
{
"stop_id": "2439304",
"stop_code": "BUS964",
"platform_code": "",
"stop_name": "Cumberland Ave & Yeager Rd (SW Corner): BUS964",
"stop_desc": "",
"zone_id": "",
"stop_url": "",
"location_type": "0",
"parent_station": "",
"stop_timezone": "America/Indiana/Indianapolis",
"position": "",
"direction": "",
"wheelchair_boarding": "0"
}
},
{
"type": "Feature",
"geometry":
{
"type": "Point",
"coordinates":
[-86.9274,40.46052]
},
"properties":
{
"stop_id": "2439305",
"stop_code": "BUS455S",
"platform_code": "",
"stop_name": "Salem Courthouse on Cumberland (East of): BUS455S",
"stop_desc": "",
"zone_id": "",
"stop_url": "",
"location_type": "0",
"parent_station": "",
"stop_timezone": "America/Indiana/Indianapolis",
"position": "",
"direction": "",
"wheelchair_boarding": "0"
}
},
{
"type": "Feature",
"geometry":
{
"type": "Point",
"coordinates":
[-86.93070915,40.46047631]
},
"properties":
{
"stop_id": "2439306",
"stop_code": "BUS511SW",
"platform_code": "",
"stop_name": "Cumberland Ave & Kent Ave (South West of):BUS511SW",
"stop_desc": "",
"zone_id": "",
"stop_url": "",
"location_type": "0",
"parent_station": "",
"stop_timezone": "America/Indiana/Indianapolis",
"position": "",
"direction": "",
"wheelchair_boarding": "0"
}
},
{
"type": "Feature",
"geometry":
{
"type": "Point",
"coordinates":
[-86.93400424,40.45987013]
},
"properties":
{
"stop_id": "2439307",
"stop_code": "BUS922",
"platform_code": "",
"stop_name": "Christina & Co Cumberland Ave (SE Corner): BUS922",
"stop_desc": "",
"zone_id": "",
"stop_url": "",
"location_type": "0",
"parent_station": "",
"stop_timezone": "America/Indiana/Indianapolis",
"position": "",
"direction": "",
"wheelchair_boarding": "0"
}
},
{
"type": "Feature",
"geometry":
{
"type": "Point",
"coordinates":
[-86.894150918965,40.416318039119]
},
"properties":
{
"stop_id": "2439308",
"stop_code": "BUS165",
"platform_code": "",
"stop_name": "3rd St & Alabama St (SE Corner): BUS165",
"stop_desc": "",
"zone_id": "",
"stop_url": "",
"location_type": "0",
"parent_station": "",
"stop_timezone": "America/Indiana/Indianapolis",
"position": "",
"direction": "",
"wheelchair_boarding": "0"
}
},
{
"type": "Feature",
"geometry":
{
"type": "Point",
"coordinates":
[-86.89411387175801,40.413110240976]
},
"properties":
{
"stop_id": "2439310",
"stop_code": "BUS991",
"platform_code": "",
"stop_name": "South Tipp Park: BUS991",
"stop_desc": "",
"zone_id": "",
"stop_url": "",
"location_type": "0",
"parent_station": "",
"stop_timezone": "America/Indiana/Indianapolis",
"position": "",
"direction": "",
"wheelchair_boarding": "0"
}
},
{
"type": "Feature",
"geometry":
{
"type": "Point",
"coordinates":
[-86.89457175,40.40985363]
},
"properties":
{
"stop_id": "2439311",
"stop_code": "BUS310",
"platform_code": "",
"stop_name": "Washington Ave & Kossuth St (SE Corner): BUS310",
"stop_desc": "",
"zone_id": "",
"stop_url": "",
"location_type": "0",
"parent_station": "",
"stop_timezone": "America/Indiana/Indianapolis",
"position": "",
"direction": "",
"wheelchair_boarding": "0"
}
},
{
"type": "Feature",
"geometry":
{
"type": "Point",
"coordinates":
[-86.89756643,40.40692466]
},
"properties":
{
"stop_id": "2439313",
"stop_code": "BUS657",
"platform_code": "",
"stop_name": "Holloway Dr & Washington St (SE Corner): BUS657",
"stop_desc": "",
"zone_id": "",
"stop_url": "",
"location_type": "0",
"parent_station": "",
"stop_timezone": "America/Indiana/Indianapolis",
"position": "",
"direction": "",
"wheelchair_boarding": "0"
}
},
{
"type": "Feature",
"geometry":
{
"type": "Point",
"coordinates":
[-86.897549,40.40531668]
},
"properties":
{
"stop_id": "2439314",
"stop_code": "BUS424",
"platform_code": "",
"stop_name": "Holloway Dr & Owen St (North of): BUS424",
"stop_desc": "",
"zone_id": "",
"stop_url": "",
"location_type": "0",
"parent_station": "",
"stop_timezone": "America/Indiana/Indianapolis",
"position": "",
"direction": "",
"wheelchair_boarding": "0"
}
},
{
"type": "Feature",
"geometry":
{
"type": "Point",
"coordinates":
[-86.89341705,40.40519061]
},
"properties":
{
"stop_id": "2439316",
"stop_code": "BUS979",
"platform_code": "",
"stop_name": "Owen St & 4th St (West of): BUS979",
"stop_desc": "",
"zone_id": "",
"stop_url": "",
"location_type": "0",
"parent_station": "",
"stop_timezone": "America/Indiana/Indianapolis",
"position": "",
"direction": "",
"wheelchair_boarding": "0"
}
},
{
"type": "Feature",
"geometry":
{
"type": "Point",
"coordinates":
[-86.892955944137,40.401953005854004]
},
"properties":
{
"stop_id": "2439318",
"stop_code": "BUS264E",
"platform_code": "",
"stop_name": "4th St & Montefiore St (SE Corner): BUS264E",
"stop_desc": "",
"zone_id": "",
"stop_url": "",
"location_type": "0",
"parent_station": "",
"stop_timezone": "America/Indiana/Indianapolis",
"position": "",
"direction": "",
"wheelchair_boarding": "0"
}
},
{
"type": "Feature",
"geometry":
{
"type": "Point",
"coordinates":
[-86.893980647666,40.398887617431]
},
"properties":
{
"stop_id": "2439319",
"stop_code": "BUS148",
"platform_code": "",
"stop_name": "4th St & Thise Ct (SE Corner): BUS148",
"stop_desc": "",
"zone_id": "",
"stop_url": "",
"location_type": "0",
"parent_station": "",
"stop_timezone": "America/Indiana/Indianapolis",
"position": "",
"direction": "",
"wheelchair_boarding": "0"
}
},
{
"type": "Feature",
"geometry":
{
"type": "Point",
"coordinates":
[-86.895226466474,40.396455236406005]
},
"properties":
{
"stop_id": "2439320",
"stop_code": "BUS910",
"platform_code": "",
"stop_name": "Valley Plaza on 4th St (South Driveway): BUS910",
"stop_desc": "",
"zone_id": "",
"stop_url": "",
"location_type": "0",
"parent_station": "",
"stop_timezone": "America/Indiana/Indianapolis",
"position": "",
"direction": "",
"wheelchair_boarding": "0"
}
},
{
"type": "Feature",
"geometry":
{
"type": "Point",
"coordinates":
[-86.900293803561,40.39422715971]
},
"properties":
{
"stop_id": "2439322",
"stop_code": "BUS653SW",
"platform_code": "",
"stop_name": "Old US 231S & Windy Hill Dr (South Side): BUS653SW",
"stop_desc": "",
"zone_id": "",
"stop_url": "",
"location_type": "0",
"parent_station": "",
"stop_timezone": "America/Indiana/Indianapolis",
"position": "",
"direction": "",
"wheelchair_boarding": "0"
}
},
{
"type": "Feature",
"geometry":
{
"type": "Point",
"coordinates":
[-86.902611921638,40.392726101779]
},
"properties":
{
"stop_id": "2439323",
"stop_code": "BUS258",
"platform_code": "",
"stop_name": "Old US 231 S & Elston Rd (North of): BUS258",
"stop_desc": "",
"zone_id": "",
"stop_url": "",
"location_type": "0",
"parent_station": "",
"stop_timezone": "America/Indiana/Indianapolis",
"position": "",
"direction": "",
"wheelchair_boarding": "0"
}
},
{
"type": "Feature",
"geometry":
{
"type": "Point",
"coordinates":
[-86.90547099999999,40.392641]
},
"properties":
{
"stop_id": "2439324",
"stop_code": "BUS976",
"platform_code": "",
"stop_name": "Elston Rd & Breckenridge St (SW of): BUS976",
"stop_desc": "",
"zone_id": "",
"stop_url": "",
"location_type": "0",
"parent_station": "",
"stop_timezone": "America/Indiana/Indianapolis",
"position": "",
"direction": "",
"wheelchair_boarding": "0"
}
},
{
"type": "Feature",
"geometry":
{
"type": "Point",
"coordinates":
[-86.909915079025,40.39298461799]
},
"properties":
{
"stop_id": "2439325",
"stop_code": "BUS975",
"platform_code": "",
"stop_name": "Elston Rd &  S Beck Ln (SW Corner): BUS 975",
"stop_desc": "",
"zone_id": "",
"stop_url": "",
"location_type": "0",
"parent_station": "",
"stop_timezone": "America/Indiana/Indianapolis",
"position": "",
"direction": "",
"wheelchair_boarding": "0"
}
},
{
"type": "Feature",
"geometry":
{
"type": "Point",
"coordinates":
[-86.913519203545,40.393217749933]
},
"properties":
{
"stop_id": "2439326",
"stop_code": "BUS974",
"platform_code": "",
"stop_name": "Old Romney Rd & Elston Rd (SE Corner): BUS974",
"stop_desc": "",
"zone_id": "",
"stop_url": "",
"location_type": "0",
"parent_station": "",
"stop_timezone": "America/Indiana/Indianapolis",
"position": "",
"direction": "",
"wheelchair_boarding": "0"
}
},
{
"type": "Feature",
"geometry":
{
"type": "Point",
"coordinates":
[-86.91212144,40.38756045]
},
"properties":
{
"stop_id": "2439327",
"stop_code": "BUS208",
"platform_code": "",
"stop_name": "Old Romney Rd & SR 25 (SE Corner): BUS208",
"stop_desc": "",
"zone_id": "",
"stop_url": "",
"location_type": "0",
"parent_station": "",
"stop_timezone": "America/Indiana/Indianapolis",
"position": "",
"direction": "",
"wheelchair_boarding": "0"
}
},
{
"type": "Feature",
"geometry":
{
"type": "Point",
"coordinates":
[-86.91073,40.38487]
},
"properties":
{
"stop_id": "2439328",
"stop_code": "BUS222",
"platform_code": "",
"stop_name": "Twyckenham Blvd & Old Romney Rd (NE Corner):BUS222",
"stop_desc": "",
"zone_id": "",
"stop_url": "",
"location_type": "0",
"parent_station": "",
"stop_timezone": "America/Indiana/Indianapolis",
"position": "",
"direction": "",
"wheelchair_boarding": "0"
}
},
{
"type": "Feature",
"geometry":
{
"type": "Point",
"coordinates":
[-86.90657329,40.38476022]
},
"properties":
{
"stop_id": "2439329",
"stop_code": "BUS239",
"platform_code": "",
"stop_name": "Twyckenham Blvd & CR 10W (North): BUS239",
"stop_desc": "",
"zone_id": "",
"stop_url": "",
"location_type": "0",
"parent_station": "",
"stop_timezone": "America/Indiana/Indianapolis",
"position": "",
"direction": "",
"wheelchair_boarding": "0"
}
},
{
"type": "Feature",
"geometry":
{
"type": "Point",
"coordinates":
[-86.90478828,40.38745316]
},
"properties":
{
"stop_id": "2439330",
"stop_code": "BUS343",
"platform_code": "",
"stop_name": "McDonald's on Old 231: BUS343",
"stop_desc": "",
"zone_id": "",
"stop_url": "",
"location_type": "0",
"parent_station": "",
"stop_timezone": "America/Indiana/Indianapolis",
"position": "",
"direction": "",
"wheelchair_boarding": "0"
}
},
{
"type": "Feature",
"geometry":
{
"type": "Point",
"coordinates":
[-86.90182042,40.38809957]
},
"properties":
{
"stop_id": "2439331",
"stop_code": "BUS336",
"platform_code": "",
"stop_name": "Pay Less on Beck Ln: BUS336",
"stop_desc": "",
"zone_id": "",
"stop_url": "",
"location_type": "0",
"parent_station": "",
"stop_timezone": "America/Indiana/Indianapolis",
"position": "",
"direction": "",
"wheelchair_boarding": "0"
}
},
{
"type": "Feature",
"geometry":
{
"type": "Point",
"coordinates":
[-86.8969683,40.38811567]
},
"properties":
{
"stop_id": "2439332",
"stop_code": "BUS700",
"platform_code": "",
"stop_name": "Beck Ln & Limestone Ln (NE Corner): BUS700",
"stop_desc": "",
"zone_id": "",
"stop_url": "",
"location_type": "0",
"parent_station": "",
"stop_timezone": "America/Indiana/Indianapolis",
"position": "",
"direction": "",
"wheelchair_boarding": "0"
}
},
{
"type": "Feature",
"geometry":
{
"type": "Point",
"coordinates":
[-86.895074715275,40.38476219412]
},
"properties":
{
"stop_id": "2439333",
"stop_code": "BUS702",
"platform_code": "",
"stop_name": "Poland Hill Rd & Matterhorn Pl (SE Corner): BUS702",
"stop_desc": "",
"zone_id": "",
"stop_url": "",
"location_type": "0",
"parent_station": "",
"stop_timezone": "America/Indiana/Indianapolis",
"position": "",
"direction": "",
"wheelchair_boarding": "0"
}
},
{
"type": "Feature",
"geometry":
{
"type": "Point",
"coordinates":
[-86.89373592343979,40.3836621601888]
},
"properties":
{
"stop_id": "2439335",
"stop_code": "BUS704N",
"platform_code": "",
"stop_name": "Twyckenham Blvd & Rampart St (NE Corner): BUS704N",
"stop_desc": "",
"zone_id": "",
"stop_url": "",
"location_type": "0",
"parent_station": "",
"stop_timezone": "America/Indiana/Indianapolis",
"position": "",
"direction": "",
"wheelchair_boarding": "0"
}
},
{
"type": "Feature",
"geometry":
{
"type": "Point",
"coordinates":
[-86.886537021028,40.382035021304]
},
"properties":
{
"stop_id": "2439337",
"stop_code": "BUS340N",
"platform_code": "",
"stop_name": "Twyckenham Blvd & 9th St (Northwest of): BUS340N",
"stop_desc": "",
"zone_id": "",
"stop_url": "",
"location_type": "0",
"parent_station": "",
"stop_timezone": "America/Indiana/Indianapolis",
"position": "",
"direction": "",
"wheelchair_boarding": "0"
}
},
{
"type": "Feature",
"geometry":
{
"type": "Point",
"coordinates":
[-86.87666754976101,40.381813954198996]
},
"properties":
{
"stop_id": "2439338",
"stop_code": "BUS338",
"platform_code": "",
"stop_name": "Twyckenham Blvd & 18th St (West of): BUS338",
"stop_desc": "",
"zone_id": "",
"stop_url": "",
"location_type": "0",
"parent_station": "",
"stop_timezone": "America/Indiana/Indianapolis",
"position": "",
"direction": "",
"wheelchair_boarding": "0"
}
},
{
"type": "Feature",
"geometry":
{
"type": "Point",
"coordinates":
[-86.8759607384259,40.3781304292629]
},
"properties":
{
"stop_id": "2439339",
"stop_code": "BUS990",
"platform_code": "",
"stop_name": "18th St at RRX (at Trailhead): BUS990",
"stop_desc": "",
"zone_id": "",
"stop_url": "",
"location_type": "0",
"parent_station": "",
"stop_timezone": "America/Indiana/Indianapolis",
"position": "",
"direction": "",
"wheelchair_boarding": "0"
}
},
{
"type": "Feature",
"geometry":
{
"type": "Point",
"coordinates":
[-86.87586764537501,40.374284133296]
},
"properties":
{
"stop_id": "2439341",
"stop_code": "BUS884",
"platform_code": "",
"stop_name": "18th St & Summertime Tr (SE Corner): BUS884",
"stop_desc": "",
"zone_id": "",
"stop_url": "",
"location_type": "0",
"parent_station": "",
"stop_timezone": "America/Indiana/Indianapolis",
"position": "",
"direction": "",
"wheelchair_boarding": "0"
}
},
{
"type": "Feature",
"geometry":
{
"type": "Point",
"coordinates":
[-86.875918617124,40.370643293905]
},
"properties":
{
"stop_id": "2439342",
"stop_code": "BUS883",
"platform_code": "",
"stop_name": "18th St & Bridgewater Cir (SE Corner): BUS883",
"stop_desc": "",
"zone_id": "",
"stop_url": "",
"location_type": "0",
"parent_station": "",
"stop_timezone": "America/Indiana/Indianapolis",
"position": "",
"direction": "",
"wheelchair_boarding": "0"
}
},
{
"type": "Feature",
"geometry":
{
"type": "Point",
"coordinates":
[-86.8758137640114,40.367983824046995]
},
"properties":
{
"stop_id": "2439343",
"stop_code": "BUS917",
"platform_code": "",
"stop_name": "18th St & Troxel Ct: BUS917",
"stop_desc": "",
"zone_id": "",
"stop_url": "",
"location_type": "0",
"parent_station": "",
"stop_timezone": "America/Indiana/Indianapolis",
"position": "",
"direction": "",
"wheelchair_boarding": "0"
}
},
{
"type": "Feature",
"geometry":
{
"type": "Point",
"coordinates":
[-86.870925759982,40.367240183066]
},
"properties":
{
"stop_id": "2439344",
"stop_code": "BUS875NE",
"platform_code": "",
"stop_name": "Veterans Mem Pkwy S & Regal Valley Dr: BUS875NE",
"stop_desc": "",
"zone_id": "",
"stop_url": "",
"location_type": "0",
"parent_station": "",
"stop_timezone": "America/Indiana/Indianapolis",
"position": "",
"direction": "",
"wheelchair_boarding": "0"
}
},
{
"type": "Feature",
"geometry":
{
"type": "Point",
"coordinates":
[-86.868724379262,40.367252978885006]
},
"properties":
{
"stop_id": "2439345",
"stop_code": "BUS881",
"platform_code": "",
"stop_name": "Veterans Mem Pkwy S & IFCU Dr (West of): BUS881",
"stop_desc": "",
"zone_id": "",
"stop_url": "",
"location_type": "0",
"parent_station": "",
"stop_timezone": "America/Indiana/Indianapolis",
"position": "",
"direction": "",
"wheelchair_boarding": "0"
}
},
{
"type": "Feature",
"geometry":
{
"type": "Point",
"coordinates":
[-86.865999459916,40.367244846491]
},
"properties":
{
"stop_id": "2439346",
"stop_code": "BUS880",
"platform_code": "",
"stop_name": "Veterans Mem Pkwy S & Cheryl Ln (West of) : BUS880",
"stop_desc": "",
"zone_id": "",
"stop_url": "",
"location_type": "0",
"parent_station": "",
"stop_timezone": "America/Indiana/Indianapolis",
"position": "",
"direction": "",
"wheelchair_boarding": "0"
}
},
{
"type": "Feature",
"geometry":
{
"type": "Point",
"coordinates":
[-86.89671852749399,40.472742157183]
},
"properties":
{
"stop_id": "2439348",
"stop_code": "BUS927NW",
"platform_code": "",
"stop_name": "Broadview Rd & Soldiers Home(NW Corner): BUS927NW",
"stop_desc": "",
"zone_id": "",
"stop_url": "",
"location_type": "0",
"parent_station": "",
"stop_timezone": "America/Indiana/Indianapolis",
"position": "",
"direction": "",
"wheelchair_boarding": "0"
}
},
{
"type": "Feature",
"geometry":
{
"type": "Point",
"coordinates":
[-86.89516854,40.47443721]
},
"properties":
{
"stop_id": "2439349",
"stop_code": "BUS928NE",
"platform_code": "",
"stop_name": "Veterans Home Entrance (North Side): BUS928NE",
"stop_desc": "",
"zone_id": "",
"stop_url": "",
"location_type": "0",
"parent_station": "",
"stop_timezone": "America/Indiana/Indianapolis",
"position": "",
"direction": "",
"wheelchair_boarding": "0"
}
},
{
"type": "Feature",
"geometry":
{
"type": "Point",
"coordinates":
[-86.89244744,40.47314975]
},
"properties":
{
"stop_id": "2439350",
"stop_code": "BUS933",
"platform_code": "",
"stop_name": "Ingersol Hall at Indiana Veterans Home: BUS933",
"stop_desc": "",
"zone_id": "",
"stop_url": "",
"location_type": "0",
"parent_station": "",
"stop_timezone": "America/Indiana/Indianapolis",
"position": "",
"direction": "",
"wheelchair_boarding": "0"
}
},
{
"type": "Feature",
"geometry":
{
"type": "Point",
"coordinates":
[-86.89174,40.47173]
},
"properties":
{
"stop_id": "2439351",
"stop_code": "BUS932",
"platform_code": "",
"stop_name": "Pyle Hall at Indiana Veterans Home: BUS932",
"stop_desc": "",
"zone_id": "",
"stop_url": "",
"location_type": "0",
"parent_station": "",
"stop_timezone": "America/Indiana/Indianapolis",
"position": "",
"direction": "",
"wheelchair_boarding": "0"
}
},
{
"type": "Feature",
"geometry":
{
"type": "Point",
"coordinates":
[-86.88980814,40.47077465]
},
"properties":
{
"stop_id": "2439352",
"stop_code": "BUS931",
"platform_code": "",
"stop_name": "Mitchell Hall at Indiana Veterans Home: BUS931",
"stop_desc": "",
"zone_id": "",
"stop_url": "",
"location_type": "0",
"parent_station": "",
"stop_timezone": "America/Indiana/Indianapolis",
"position": "",
"direction": "",
"wheelchair_boarding": "0"
}
},
{
"type": "Feature",
"geometry":
{
"type": "Point",
"coordinates":
[-86.88863,40.472640000000006]
},
"properties":
{
"stop_id": "2439353",
"stop_code": "BUS930",
"platform_code": "",
"stop_name": "Dehart Hall at Indiana Veterans Home: BUS930",
"stop_desc": "",
"zone_id": "",
"stop_url": "",
"location_type": "0",
"parent_station": "",
"stop_timezone": "America/Indiana/Indianapolis",
"position": "",
"direction": "",
"wheelchair_boarding": "0"
}
},
{
"type": "Feature",
"geometry":
{
"type": "Point",
"coordinates":
[-86.89131,40.47294]
},
"properties":
{
"stop_id": "2439354",
"stop_code": "BUS929",
"platform_code": "",
"stop_name": "Lincoln Hall at Indiana Veterans Home: BUS929",
"stop_desc": "",
"zone_id": "",
"stop_url": "",
"location_type": "0",
"parent_station": "",
"stop_timezone": "America/Indiana/Indianapolis",
"position": "",
"direction": "",
"wheelchair_boarding": "0"
}
},
{
"type": "Feature",
"geometry":
{
"type": "Point",
"coordinates":
[-86.89564597,40.47431114]
},
"properties":
{
"stop_id": "2439355",
"stop_code": "BUS928SE",
"platform_code": "",
"stop_name": "Veterans Home Entrance on Soldiers Home: BUS928SE",
"stop_desc": "",
"zone_id": "",
"stop_url": "",
"location_type": "0",
"parent_station": "",
"stop_timezone": "America/Indiana/Indianapolis",
"position": "",
"direction": "",
"wheelchair_boarding": "0"
}
},
{
"type": "Feature",
"geometry":
{
"type": "Point",
"coordinates":
[-86.896514680655,40.472511848351004]
},
"properties":
{
"stop_id": "2439356",
"stop_code": "BUS927SE",
"platform_code": "",
"stop_name": "Broadview Rd & Soldiers Home(SE Corner): BUS927SE",
"stop_desc": "",
"zone_id": "",
"stop_url": "",
"location_type": "0",
"parent_station": "",
"stop_timezone": "America/Indiana/Indianapolis",
"position": "",
"direction": "",
"wheelchair_boarding": "0"
}
},
{
"type": "Feature",
"geometry":
{
"type": "Point",
"coordinates":
[-86.89949096229,40.466631771349]
},
"properties":
{
"stop_id": "2439357",
"stop_code": "BUS616",
"platform_code": "",
"stop_name": "Heritage Health Care on Soldiers Home Rd: BUS616",
"stop_desc": "",
"zone_id": "",
"stop_url": "",
"location_type": "0",
"parent_station": "",
"stop_timezone": "America/Indiana/Indianapolis",
"position": "",
"direction": "",
"wheelchair_boarding": "0"
}
},
{
"type": "Feature",
"geometry":
{
"type": "Point",
"coordinates":
[-86.901027655361,40.46083767703]
},
"properties":
{
"stop_id": "2439358",
"stop_code": "BUS936NE",
"platform_code": "",
"stop_name": "Soldiers Home & Overlook Dr (NE Corner): BUS936NE",
"stop_desc": "",
"zone_id": "",
"stop_url": "",
"location_type": "0",
"parent_station": "",
"stop_timezone": "America/Indiana/Indianapolis",
"position": "",
"direction": "",
"wheelchair_boarding": "0"
}
},
{
"type": "Feature",
"geometry":
{
"type": "Point",
"coordinates":
[-86.90151225755,40.459495878234]
},
"properties":
{
"stop_id": "2439359",
"stop_code": "BUS613",
"platform_code": "",
"stop_name": "Hartman Ct & Soldiers Home Rd (SE Corner): BUS613",
"stop_desc": "",
"zone_id": "",
"stop_url": "",
"location_type": "0",
"parent_station": "",
"stop_timezone": "America/Indiana/Indianapolis",
"position": "",
"direction": "",
"wheelchair_boarding": "0"
}
},
{
"type": "Feature",
"geometry":
{
"type": "Point",
"coordinates":
[-86.90296304,40.45641008]
},
"properties":
{
"stop_id": "2439360",
"stop_code": "BUS926",
"platform_code": "",
"stop_name": "Soldiers Home Rd & Myrtle Dr (NW of): BUS926",
"stop_desc": "",
"zone_id": "",
"stop_url": "",
"location_type": "0",
"parent_station": "",
"stop_timezone": "America/Indiana/Indianapolis",
"position": "",
"direction": "",
"wheelchair_boarding": "0"
}
},
{
"type": "Feature",
"geometry":
{
"type": "Point",
"coordinates":
[-86.90301900907801,40.454494560862]
},
"properties":
{
"stop_id": "2439361",
"stop_code": "BUS335",
"platform_code": "",
"stop_name": "Sharon Rd & Soldiers Home Rd (NE Corner): BUS335",
"stop_desc": "",
"zone_id": "",
"stop_url": "",
"location_type": "0",
"parent_station": "",
"stop_timezone": "America/Indiana/Indianapolis",
"position": "",
"direction": "",
"wheelchair_boarding": "0"
}
},
{
"type": "Feature",
"geometry":
{
"type": "Point",
"coordinates":
[-86.90197722817699,40.451346957137]
},
"properties":
{
"stop_id": "2439362",
"stop_code": "BUS595E",
"platform_code": "",
"stop_name": "Parkway Apts on Happy Hollow: BUS595E",
"stop_desc": "",
"zone_id": "",
"stop_url": "",
"location_type": "0",
"parent_station": "",
"stop_timezone": "America/Indiana/Indianapolis",
"position": "",
"direction": "",
"wheelchair_boarding": "0"
}
},
{
"type": "Feature",
"geometry":
{
"type": "Point",
"coordinates":
[-86.900848213799,40.449886847436]
},
"properties":
{
"stop_id": "2439363",
"stop_code": "BUS361SE",
"platform_code": "",
"stop_name": "Chippewa & Happy Hollow Rd (SE Corner): BUS361SE",
"stop_desc": "",
"zone_id": "",
"stop_url": "",
"location_type": "0",
"parent_station": "",
"stop_timezone": "America/Indiana/Indianapolis",
"position": "",
"direction": "",
"wheelchair_boarding": "0"
}
},
{
"type": "Feature",
"geometry":
{
"type": "Point",
"coordinates":
[-86.89930354751,40.44643851894]
},
"properties":
{
"stop_id": "2439364",
"stop_code": "BUS597E",
"platform_code": "",
"stop_name": "Pathway Ln & Happy Hollow Rd (SE Corner): BUS597E",
"stop_desc": "",
"zone_id": "",
"stop_url": "",
"location_type": "0",
"parent_station": "",
"stop_timezone": "America/Indiana/Indianapolis",
"position": "",
"direction": "",
"wheelchair_boarding": "0"
}
},
{
"type": "Feature",
"geometry":
{
"type": "Point",
"coordinates":
[-86.899179063001,40.439357963392]
},
"properties":
{
"stop_id": "2439365",
"stop_code": "BUS123E",
"platform_code": "",
"stop_name": "Nobb Hill Apts on Happy Hollow: BUS123E",
"stop_desc": "",
"zone_id": "",
"stop_url": "",
"location_type": "0",
"parent_station": "",
"stop_timezone": "America/Indiana/Indianapolis",
"position": "",
"direction": "",
"wheelchair_boarding": "0"
}
},
{
"type": "Feature",
"geometry":
{
"type": "Point",
"coordinates":
[-86.89928703782499,40.437099004794]
},
"properties":
{
"stop_id": "2439366",
"stop_code": "BUS600N",
"platform_code": "",
"stop_name": "Happy Hollow Rd & Catherwood Dr(NE Corner):BUS600N",
"stop_desc": "",
"zone_id": "",
"stop_url": "",
"location_type": "0",
"parent_station": "",
"stop_timezone": "America/Indiana/Indianapolis",
"position": "",
"direction": "",
"wheelchair_boarding": "0"
}
},
{
"type": "Feature",
"geometry":
{
"type": "Point",
"coordinates":
[-86.89903762,40.4320127]
},
"properties":
{
"stop_id": "2439367",
"stop_code": "BUS145E",
"platform_code": "",
"stop_name": "Launch Apts (North Drive): BUS065",
"stop_desc": "",
"zone_id": "",
"stop_url": "",
"location_type": "0",
"parent_station": "",
"stop_timezone": "America/Indiana/Indianapolis",
"position": "",
"direction": "",
"wheelchair_boarding": "0"
}
},
{
"type": "Feature",
"geometry":
{
"type": "Point",
"coordinates":
[-86.89972399999999,40.430536]
},
"properties":
{
"stop_id": "2439368",
"stop_code": "BUS460",
"platform_code": "",
"stop_name": "Launch Apts (South Drive, SE Corner): BUS460",
"stop_desc": "",
"zone_id": "",
"stop_url": "",
"location_type": "0",
"parent_station": "",
"stop_timezone": "America/Indiana/Indianapolis",
"position": "",
"direction": "",
"wheelchair_boarding": "0"
}
},
{
"type": "Feature",
"geometry":
{
"type": "Point",
"coordinates":
[-86.900601,40.428453999999995]
},
"properties":
{
"stop_id": "2439369",
"stop_code": "BUS602E",
"platform_code": "",
"stop_name": "River Rd & Robinson St (North of, East): BUS602E",
"stop_desc": "",
"zone_id": "",
"stop_url": "",
"location_type": "0",
"parent_station": "",
"stop_timezone": "America/Indiana/Indianapolis",
"position": "",
"direction": "",
"wheelchair_boarding": "0"
}
},
{
"type": "Feature",
"geometry":
{
"type": "Point",
"coordinates":
[-86.905991,40.426543]
},
"properties":
{
"stop_id": "2439370",
"stop_code": "BUS951",
"platform_code": "",
"stop_name": "Salisbury St & Wiggins St (SW Corner): BUS951",
"stop_desc": "",
"zone_id": "",
"stop_url": "",
"location_type": "0",
"parent_station": "",
"stop_timezone": "America/Indiana/Indianapolis",
"position": "",
"direction": "",
"wheelchair_boarding": "0"
}
},
{
"type": "Feature",
"geometry":
{
"type": "Point",
"coordinates":
[-86.90831461972799,40.426616911395]
},
"properties":
{
"stop_id": "2439371",
"stop_code": "BUS950",
"platform_code": "",
"stop_name": "Wiggins St & Vine St (SW Corner): BUS950",
"stop_desc": "",
"zone_id": "",
"stop_url": "",
"location_type": "0",
"parent_station": "",
"stop_timezone": "America/Indiana/Indianapolis",
"position": "",
"direction": "",
"wheelchair_boarding": "0"
}
},
{
"type": "Feature",
"geometry":
{
"type": "Point",
"coordinates":
[-86.909409,40.426959000000004]
},
"properties":
{
"stop_id": "2439372",
"stop_code": "BUS559",
"platform_code": "",
"stop_name": "Northwestern Ave & Wiggins St (NW of): BUS559",
"stop_desc": "",
"zone_id": "",
"stop_url": "",
"location_type": "0",
"parent_station": "",
"stop_timezone": "America/Indiana/Indianapolis",
"position": "",
"direction": "",
"wheelchair_boarding": "0"
}
},
{
"type": "Feature",
"geometry":
{
"type": "Point",
"coordinates":
[-86.94017467,40.45914861]
},
"properties":
{
"stop_id": "2439373",
"stop_code": "BUS223",
"platform_code": "",
"stop_name": "Lodge Apts on Cumberland Ave (at Shelter): BUS223",
"stop_desc": "",
"zone_id": "",
"stop_url": "",
"location_type": "0",
"parent_station": "",
"stop_timezone": "America/Indiana/Indianapolis",
"position": "",
"direction": "",
"wheelchair_boarding": "0"
}
},
{
"type": "Feature",
"geometry":
{
"type": "Point",
"coordinates":
[-86.9306716,40.46082365]
},
"properties":
{
"stop_id": "2439376",
"stop_code": "BUS511NW",
"platform_code": "",
"stop_name": "Cumberland Ave & Kent Ave (North West of):BUS511NW",
"stop_desc": "",
"zone_id": "",
"stop_url": "",
"location_type": "0",
"parent_station": "",
"stop_timezone": "America/Indiana/Indianapolis",
"position": "",
"direction": "",
"wheelchair_boarding": "0"
}
},
{
"type": "Feature",
"geometry":
{
"type": "Point",
"coordinates":
[-86.92673009,40.46084377]
},
"properties":
{
"stop_id": "2439377",
"stop_code": "BUS455N",
"platform_code": "",
"stop_name": "Salem Courthouse Apts (at Shelter): BUS455N",
"stop_desc": "",
"zone_id": "",
"stop_url": "",
"location_type": "0",
"parent_station": "",
"stop_timezone": "America/Indiana/Indianapolis",
"position": "",
"direction": "",
"wheelchair_boarding": "0"
}
},
{
"type": "Feature",
"geometry":
{
"type": "Point",
"coordinates":
[-86.92412,40.46078]
},
"properties":
{
"stop_id": "2439378",
"stop_code": "BUS218NE",
"platform_code": "",
"stop_name": "Cumberland Ave & Yeager Rd (East of): BUS218NE",
"stop_desc": "",
"zone_id": "",
"stop_url": "",
"location_type": "0",
"parent_station": "",
"stop_timezone": "America/Indiana/Indianapolis",
"position": "",
"direction": "",
"wheelchair_boarding": "0"
}
},
{
"type": "Feature",
"geometry":
{
"type": "Point",
"coordinates":
[-86.92111891,40.46070698]
},
"properties":
{
"stop_id": "2439379",
"stop_code": "BUS541",
"platform_code": "",
"stop_name": "Cumberland Ave & Browning St (NE Corner): BUS541",
"stop_desc": "",
"zone_id": "",
"stop_url": "",
"location_type": "0",
"parent_station": "",
"stop_timezone": "America/Indiana/Indianapolis",
"position": "",
"direction": "",
"wheelchair_boarding": "0"
}
},
{
"type": "Feature",
"geometry":
{
"type": "Point",
"coordinates":
[-86.9188511,40.46056214]
},
"properties":
{
"stop_id": "2439380",
"stop_code": "BUS594",
"platform_code": "",
"stop_name": "Cumberland Pointe on Cumberland(NE Corner):BUS594",
"stop_desc": "",
"zone_id": "",
"stop_url": "",
"location_type": "0",
"parent_station": "",
"stop_timezone": "America/Indiana/Indianapolis",
"position": "",
"direction": "",
"wheelchair_boarding": "0"
}
},
{
"type": "Feature",
"geometry":
{
"type": "Point",
"coordinates":
[-86.91606,40.46054]
},
"properties":
{
"stop_id": "2439381",
"stop_code": "BUS418",
"platform_code": "",
"stop_name": "Cumberland Ave & Salisbury St (West of): BUS418",
"stop_desc": "",
"zone_id": "",
"stop_url": "",
"location_type": "0",
"parent_station": "",
"stop_timezone": "America/Indiana/Indianapolis",
"position": "",
"direction": "",
"wheelchair_boarding": "0"
}
},
{
"type": "Feature",
"geometry":
{
"type": "Point",
"coordinates":
[-86.91554992295201,40.458456875373]
},
"properties":
{
"stop_id": "2439382",
"stop_code": "BUS427",
"platform_code": "",
"stop_name": "Westminster Village N & Salisbury (East): BUS427",
"stop_desc": "",
"zone_id": "",
"stop_url": "",
"location_type": "0",
"parent_station": "",
"stop_timezone": "America/Indiana/Indianapolis",
"position": "",
"direction": "",
"wheelchair_boarding": "0"
}
},
{
"type": "Feature",
"geometry":
{
"type": "Point",
"coordinates":
[-86.91561099,40.45540827]
},
"properties":
{
"stop_id": "2439383",
"stop_code": "BUS610",
"platform_code": "",
"stop_name": "Salisbury St. and Kent Ave (north of): BUS610",
"stop_desc": "",
"zone_id": "",
"stop_url": "",
"location_type": "0",
"parent_station": "",
"stop_timezone": "America/Indiana/Indianapolis",
"position": "",
"direction": "",
"wheelchair_boarding": "0"
}
},
{
"type": "Feature",
"geometry":
{
"type": "Point",
"coordinates":
[-86.91563554515699,40.450779027562]
},
"properties":
{
"stop_id": "2439384",
"stop_code": "BUS484",
"platform_code": "",
"stop_name": "Park Ridge Dr & Salisbury St (SE Corner): BUS484",
"stop_desc": "",
"zone_id": "",
"stop_url": "",
"location_type": "0",
"parent_station": "",
"stop_timezone": "America/Indiana/Indianapolis",
"position": "",
"direction": "",
"wheelchair_boarding": "0"
}
},
{
"type": "Feature",
"geometry":
{
"type": "Point",
"coordinates":
[-86.91562772681,40.448014755257]
},
"properties":
{
"stop_id": "2439385",
"stop_code": "BUS633SE",
"platform_code": "",
"stop_name": "Salisbury St & Sycamore Ln (SE Corner): BUS633SE",
"stop_desc": "",
"zone_id": "",
"stop_url": "",
"location_type": "0",
"parent_station": "",
"stop_timezone": "America/Indiana/Indianapolis",
"position": "",
"direction": "",
"wheelchair_boarding": "0"
}
},
{
"type": "Feature",
"geometry":
{
"type": "Point",
"coordinates":
[-86.91398002477399,40.445537259522]
},
"properties":
{
"stop_id": "2439386",
"stop_code": "BUS365SE",
"platform_code": "",
"stop_name": "Salisbury St & Lindberg Rd (South of): BUS365SE",
"stop_desc": "",
"zone_id": "",
"stop_url": "",
"location_type": "0",
"parent_station": "",
"stop_timezone": "America/Indiana/Indianapolis",
"position": "",
"direction": "",
"wheelchair_boarding": "0"
}
},
{
"type": "Feature",
"geometry":
{
"type": "Point",
"coordinates":
[-86.91228180559999,40.442821859757]
},
"properties":
{
"stop_id": "2439387",
"stop_code": "BUS638",
"platform_code": "",
"stop_name": "Salisbury St & Creighton Rd (NE Corner): BUS638",
"stop_desc": "",
"zone_id": "",
"stop_url": "",
"location_type": "0",
"parent_station": "",
"stop_timezone": "America/Indiana/Indianapolis",
"position": "",
"direction": "",
"wheelchair_boarding": "0"
}
},
{
"type": "Feature",
"geometry":
{
"type": "Point",
"coordinates":
[-86.910848874946,40.441926486473996]
},
"properties":
{
"stop_id": "2439388",
"stop_code": "BUS337NE",
"platform_code": "",
"stop_name": "Salisbury St & Grant St (NE Corner) : BUS337NE",
"stop_desc": "",
"zone_id": "",
"stop_url": "",
"location_type": "0",
"parent_station": "",
"stop_timezone": "America/Indiana/Indianapolis",
"position": "",
"direction": "",
"wheelchair_boarding": "0"
}
},
{
"type": "Feature",
"geometry":
{
"type": "Point",
"coordinates":
[-86.90732700885599,40.438900512125]
},
"properties":
{
"stop_id": "2439389",
"stop_code": "BUS637SE",
"platform_code": "",
"stop_name": "Salisbury St & Rockland Dr (SE Corner): BUS637SE",
"stop_desc": "",
"zone_id": "",
"stop_url": "",
"location_type": "0",
"parent_station": "",
"stop_timezone": "America/Indiana/Indianapolis",
"position": "",
"direction": "",
"wheelchair_boarding": "0"
}
},
{
"type": "Feature",
"geometry":
{
"type": "Point",
"coordinates":
[-86.9061495,40.4373275]
},
"properties":
{
"stop_id": "2439390",
"stop_code": "BUS493",
"platform_code": "",
"stop_name": "Happy Hollow School on Salisbury(SE Corner):BUS493",
"stop_desc": "",
"zone_id": "",
"stop_url": "",
"location_type": "0",
"parent_station": "",
"stop_timezone": "America/Indiana/Indianapolis",
"position": "",
"direction": "",
"wheelchair_boarding": "0"
}
},
{
"type": "Feature",
"geometry":
{
"type": "Point",
"coordinates":
[-86.905754495343,40.434908767824]
},
"properties":
{
"stop_id": "2439391",
"stop_code": "BUS333SE",
"platform_code": "",
"stop_name": "Salisbury St & Robinson St (SE Corner): BUS333SE",
"stop_desc": "",
"zone_id": "",
"stop_url": "",
"location_type": "0",
"parent_station": "",
"stop_timezone": "America/Indiana/Indianapolis",
"position": "",
"direction": "",
"wheelchair_boarding": "0"
}
},
{
"type": "Feature",
"geometry":
{
"type": "Point",
"coordinates":
[-86.905667312612,40.432581080929]
},
"properties":
{
"stop_id": "2439392",
"stop_code": "BUS636SE",
"platform_code": "",
"stop_name": "Salisbury St & Dehart St (SE Corner): BUS636SE",
"stop_desc": "",
"zone_id": "",
"stop_url": "",
"location_type": "0",
"parent_station": "",
"stop_timezone": "America/Indiana/Indianapolis",
"position": "",
"direction": "",
"wheelchair_boarding": "0"
}
},
{
"type": "Feature",
"geometry":
{
"type": "Point",
"coordinates":
[-86.905846813412,40.43074105586]
},
"properties":
{
"stop_id": "2439393",
"stop_code": "BUS061",
"platform_code": "",
"stop_name": "Stadium Ave & Salisbury St (SW Corner): BUS061",
"stop_desc": "",
"zone_id": "",
"stop_url": "",
"location_type": "0",
"parent_station": "",
"stop_timezone": "America/Indiana/Indianapolis",
"position": "",
"direction": "",
"wheelchair_boarding": "0"
}
},
{
"type": "Feature",
"geometry":
{
"type": "Point",
"coordinates":
[-86.908311555236,40.430775433926]
},
"properties":
{
"stop_id": "2439394",
"stop_code": "BUS635",
"platform_code": "",
"stop_name": "Stadium Ave & Vine St (SW Corner): BUS635",
"stop_desc": "",
"zone_id": "",
"stop_url": "",
"location_type": "0",
"parent_station": "",
"stop_timezone": "America/Indiana/Indianapolis",
"position": "",
"direction": "",
"wheelchair_boarding": "0"
}
},
{
"type": "Feature",
"geometry":
{
"type": "Point",
"coordinates":
[-86.910623563746,40.433188727219]
},
"properties":
{
"stop_id": "2439395",
"stop_code": "BUS622",
"platform_code": "",
"stop_name": "Dodge St & Grant St (SW Corner): BUS622",
"stop_desc": "",
"zone_id": "",
"stop_url": "",
"location_type": "0",
"parent_station": "",
"stop_timezone": "America/Indiana/Indianapolis",
"position": "",
"direction": "",
"wheelchair_boarding": "0"
}
},
{
"type": "Feature",
"geometry":
{
"type": "Point",
"coordinates":
[-86.91304948,40.4331513]
},
"properties":
{
"stop_id": "2439396",
"stop_code": "BUS530S",
"platform_code": "",
"stop_name": "Dodge St & Garfield St (SW Corner): BUS530S",
"stop_desc": "",
"zone_id": "",
"stop_url": "",
"location_type": "0",
"parent_station": "",
"stop_timezone": "America/Indiana/Indianapolis",
"position": "",
"direction": "",
"wheelchair_boarding": "0"
}
},
{
"type": "Feature",
"geometry":
{
"type": "Point",
"coordinates":
[-86.91373613,40.43126034]
},
"properties":
{
"stop_id": "2439397",
"stop_code": "BUS530",
"platform_code": "",
"stop_name": "Northwestern Ave & Stadium Ave (McDonalds): BUS530",
"stop_desc": "",
"zone_id": "",
"stop_url": "",
"location_type": "0",
"parent_station": "",
"stop_timezone": "America/Indiana/Indianapolis",
"position": "",
"direction": "",
"wheelchair_boarding": "0"
}
},
{
"type": "Feature",
"geometry":
{
"type": "Point",
"coordinates":
[-86.90823492,40.42775604]
},
"properties":
{
"stop_id": "2439398",
"stop_code": "BUS949",
"platform_code": "",
"stop_name": "W Fowler Ave & Vine St (NW Corner): BUS949",
"stop_desc": "",
"zone_id": "",
"stop_url": "",
"location_type": "0",
"parent_station": "",
"stop_timezone": "America/Indiana/Indianapolis",
"position": "",
"direction": "",
"wheelchair_boarding": "0"
}
},
{
"type": "Feature",
"geometry":
{
"type": "Point",
"coordinates":
[-86.903829,40.426681]
},
"properties":
{
"stop_id": "2439399",
"stop_code": "BUS359",
"platform_code": "",
"stop_name": "E Fowler Ave & Littleton St & (NW Corner): BUS359",
"stop_desc": "",
"zone_id": "",
"stop_url": "",
"location_type": "0",
"parent_station": "",
"stop_timezone": "America/Indiana/Indianapolis",
"position": "",
"direction": "",
"wheelchair_boarding": "0"
}
},
{
"type": "Feature",
"geometry":
{
"type": "Point",
"coordinates":
[-86.891556013064,40.425823693264]
},
"properties":
{
"stop_id": "2439400",
"stop_code": "BUS519W",
"platform_code": "",
"stop_name": "Fannon & Salem St (NW Corner): BUS519W",
"stop_desc": "",
"zone_id": "",
"stop_url": "",
"location_type": "0",
"parent_station": "",
"stop_timezone": "America/Indiana/Indianapolis",
"position": "",
"direction": "",
"wheelchair_boarding": "0"
}
},
{
"type": "Feature",
"geometry":
{
"type": "Point",
"coordinates":
[-86.89304557,40.4236536]
},
"properties":
{
"stop_id": "2439401",
"stop_code": "BUS564",
"platform_code": "",
"stop_name": "4th St & Wall St (SE Corner): BUS564",
"stop_desc": "",
"zone_id": "",
"stop_url": "",
"location_type": "0",
"parent_station": "",
"stop_timezone": "America/Indiana/Indianapolis",
"position": "",
"direction": "",
"wheelchair_boarding": "0"
}
},
{
"type": "Feature",
"geometry":
{
"type": "Point",
"coordinates":
[-86.903594151396,40.423491719963]
},
"properties":
{
"stop_id": "2439402",
"stop_code": "BUS580",
"platform_code": "",
"stop_name": "River Rd & Howard Ave (SW of Corner): BUS580",
"stop_desc": "",
"zone_id": "",
"stop_url": "",
"location_type": "0",
"parent_station": "",
"stop_timezone": "America/Indiana/Indianapolis",
"position": "",
"direction": "",
"wheelchair_boarding": "0"
}
},
{
"type": "Feature",
"geometry":
{
"type": "Point",
"coordinates":
[-86.901442380266,40.427308292231004]
},
"properties":
{
"stop_id": "2439403",
"stop_code": "BUS124",
"platform_code": "",
"stop_name": "River Rd & Quincy St (at Shelter): BUS124",
"stop_desc": "",
"zone_id": "",
"stop_url": "",
"location_type": "0",
"parent_station": "",
"stop_timezone": "America/Indiana/Indianapolis",
"position": "",
"direction": "",
"wheelchair_boarding": "0"
}
},
{
"type": "Feature",
"geometry":
{
"type": "Point",
"coordinates":
[-86.90077078785102,40.428631416364006]
},
"properties":
{
"stop_id": "2439404",
"stop_code": "BUS602W",
"platform_code": "",
"stop_name": "River Rd & Robinson St (NW Corner): BUS602W",
"stop_desc": "",
"zone_id": "",
"stop_url": "",
"location_type": "0",
"parent_station": "",
"stop_timezone": "America/Indiana/Indianapolis",
"position": "",
"direction": "",
"wheelchair_boarding": "0"
}
},
{
"type": "Feature",
"geometry":
{
"type": "Point",
"coordinates":
[-86.89936,40.431754999999995]
},
"properties":
{
"stop_id": "2439405",
"stop_code": "BUS066",
"platform_code": "",
"stop_name": "Launch Apts (North, @Shelter): BUS066",
"stop_desc": "",
"zone_id": "",
"stop_url": "",
"location_type": "0",
"parent_station": "",
"stop_timezone": "America/Indiana/Indianapolis",
"position": "",
"direction": "",
"wheelchair_boarding": "0"
}
},
{
"type": "Feature",
"geometry":
{
"type": "Point",
"coordinates":
[-86.89813506,40.43689432]
},
"properties":
{
"stop_id": "2439406",
"stop_code": "BUS600E",
"platform_code": "",
"stop_name": "Catherwood Dr & Happy Hollow Rd (East of): BUS600E",
"stop_desc": "",
"zone_id": "",
"stop_url": "",
"location_type": "0",
"parent_station": "",
"stop_timezone": "America/Indiana/Indianapolis",
"position": "",
"direction": "",
"wheelchair_boarding": "0"
}
},
{
"type": "Feature",
"geometry":
{
"type": "Point",
"coordinates":
[-86.899389003115,40.439278975158]
},
"properties":
{
"stop_id": "2439407",
"stop_code": "BUS123W",
"platform_code": "",
"stop_name": "Nobb Hill Apts on Happy Hollow: BUS123W",
"stop_desc": "",
"zone_id": "",
"stop_url": "",
"location_type": "0",
"parent_station": "",
"stop_timezone": "America/Indiana/Indianapolis",
"position": "",
"direction": "",
"wheelchair_boarding": "0"
}
},
{
"type": "Feature",
"geometry":
{
"type": "Point",
"coordinates":
[-86.89966462967399,40.444112340391]
},
"properties":
{
"stop_id": "2439408",
"stop_code": "BUS599W",
"platform_code": "",
"stop_name": "Happy Hollow Rd & Laurel Dr (SW Corner): BUS599W",
"stop_desc": "",
"zone_id": "",
"stop_url": "",
"location_type": "0",
"parent_station": "",
"stop_timezone": "America/Indiana/Indianapolis",
"position": "",
"direction": "",
"wheelchair_boarding": "0"
}
},
{
"type": "Feature",
"geometry":
{
"type": "Point",
"coordinates":
[-86.899419104827,40.446350807407]
},
"properties":
{
"stop_id": "2439409",
"stop_code": "BUS597W",
"platform_code": "",
"stop_name": "Happy Hollow Rd & Pathway Ln (SW Corner): BUS597W",
"stop_desc": "",
"zone_id": "",
"stop_url": "",
"location_type": "0",
"parent_station": "",
"stop_timezone": "America/Indiana/Indianapolis",
"position": "",
"direction": "",
"wheelchair_boarding": "0"
}
},
{
"type": "Feature",
"geometry":
{
"type": "Point",
"coordinates":
[-86.899803936187,40.448364283588]
},
"properties":
{
"stop_id": "2439410",
"stop_code": "BUS596",
"platform_code": "",
"stop_name": "Happy Hollow Rd & Knox Dr (NW Corner): BUS596",
"stop_desc": "",
"zone_id": "",
"stop_url": "",
"location_type": "0",
"parent_station": "",
"stop_timezone": "America/Indiana/Indianapolis",
"position": "",
"direction": "",
"wheelchair_boarding": "0"
}
},
{
"type": "Feature",
"geometry":
{
"type": "Point",
"coordinates":
[-86.901159115349,40.45003284647]
},
"properties":
{
"stop_id": "2439411",
"stop_code": "BUS361NW",
"platform_code": "",
"stop_name": "Chippewa St & Happy Hollow (NW Corner): BUS361NW",
"stop_desc": "",
"zone_id": "",
"stop_url": "",
"location_type": "0",
"parent_station": "",
"stop_timezone": "America/Indiana/Indianapolis",
"position": "",
"direction": "",
"wheelchair_boarding": "0"
}
},
{
"type": "Feature",
"geometry":
{
"type": "Point",
"coordinates":
[-86.902075840757,40.451196572761]
},
"properties":
{
"stop_id": "2439412",
"stop_code": "BUS595W",
"platform_code": "",
"stop_name": "Parkway Apts on Happy Hollow: BUS595W",
"stop_desc": "",
"zone_id": "",
"stop_url": "",
"location_type": "0",
"parent_station": "",
"stop_timezone": "America/Indiana/Indianapolis",
"position": "",
"direction": "",
"wheelchair_boarding": "0"
}
},
{
"type": "Feature",
"geometry":
{
"type": "Point",
"coordinates":
[-86.90314767809299,40.454482490882]
},
"properties":
{
"stop_id": "2439413",
"stop_code": "BUS144",
"platform_code": "",
"stop_name": "Univ Crossing Apts Soldiers Home(@Shelter):BUS144",
"stop_desc": "",
"zone_id": "",
"stop_url": "",
"location_type": "0",
"parent_station": "",
"stop_timezone": "America/Indiana/Indianapolis",
"position": "",
"direction": "",
"wheelchair_boarding": "0"
}
},
{
"type": "Feature",
"geometry":
{
"type": "Point",
"coordinates":
[-86.902797932525,40.457135150237]
},
"properties":
{
"stop_id": "2439414",
"stop_code": "BUS959",
"platform_code": "",
"stop_name": "Soldiers Home Rd & Linda Ln: BUS959",
"stop_desc": "",
"zone_id": "",
"stop_url": "",
"location_type": "0",
"parent_station": "",
"stop_timezone": "America/Indiana/Indianapolis",
"position": "",
"direction": "",
"wheelchair_boarding": "0"
}
},
{
"type": "Feature",
"geometry":
{
"type": "Point",
"coordinates":
[-86.901723480216,40.459408536376]
},